Type,Name,Longitude,Latitude
Malls,n/a,12.5310490,55.6818036
Malls,Frederiksberg centeret,12.5333550,55.6822430
Malls,Q-Park Illum,12.5795608,55.6797769
Malls,K,12.4571370,55.6789057
Malls,P,12.4579915,55.6799249
Malls,Frihedens Butikscenter,12.48406003333333333333333333,55.626984875
Malls,Frederiksberg Centret,12.53223812962962962962962963,55.68172073703703703703703704
Malls,Rødovre Centrum,12.457133042,55.679388752
Malls,Fisketorvet,12.56121518604651162790697674,55.66183853720930232558139535
Malls,Field's,12.57764880588235294117647059,55.63046102352941176470588235
Malls,Nørrebro Bycenter,12.53812059622641509433962264,55.70324353207547169811320755
Malls,Hvidovrevejs Butikstorv,12.4740983,55.65329371
Malls,Hvidovre C,12.47597121071428571428571429,55.66354322142857142857142857
Malls,Rebæk Søpark Butikscenter,12.45805314,55.6635152
Malls,Waterfront Shopping,12.57936284,55.7258382
Malls,Høje Gladsaxe Center,12.4973360,55.72994414
Malls,Bangs Torv,12.43898987826086956521739130,55.7226910
Malls,Spinderiet,12.51136917674418604651162791,55.66478501162790697674418605
Malls,Amager Centret,12.604195236,55.663206452
Malls,BIG Shopping,12.44850770625,55.71844340625
Malls,Kronen Vanløse,12.49240612448979591836734694,55.68769317755102040816326531
Malls,Illum,12.58036978181818181818181818,55.67946005454545454545454545
Malls,Tårnby Torv,12.60082524,55.63061632
Malls,Herlev Bymidte,12.43945772478260869565217392,55.7236510347826086956521739
Schools,n/a,12.6255513,55.6337732
Schools,Instituttet for Blinde og Svagsynede - IBOS,12.5634854,55.7267963
Schools,Fritidshjemmet Ærtebjerg,12.4628603,55.6350689
Schools,Skolen på Nyelandsvej,12.5303254,55.6828139
Schools,Trekronergade Freinetskole,12.5197857,55.6572129
Schools,Skolen ved Milestedet,12.4506967,55.6700978
Schools,Niels Brock,12.5745879,55.6825046
Schools,Flyvevåbnets Officersskole,12.5730322,55.7174668
Schools,Krebs' Skole,12.5757128,55.6898694
Schools,Christianshavn Døttreskole,12.5939114,55.6733005
Schools,Frederiksberg HF-kursus,12.4985739,55.6799579
Schools,Gefion Gymnasium,12.5813831,55.6882961
Schools,Prins Henriks Skole,12.5496938,55.6739171
Schools,Fabrikken,12.6141227,55.6227549
Schools,Københavns Idrætsefterskole,12.5112820,55.6479492
Schools,Professionsskolen UCC,12.5533850,55.7043636
Schools,Sprogcenter Hellerup,12.5566685,55.7274179
Schools,Sprogcenter Hellerup - Tuborg campus,12.5788001,55.7267087
Schools,Frederiksberg Slot - Hærens Officersskole,12.5251621,55.6718932
Schools,High school,12.5735394,55.6752860
Schools,Sosu C,12.4188799,55.6509471
Schools,Engskolen,12.5455600,55.6683000
Schools,Filipskolen,12.6334808,55.6595148
Schools,Skandinavisk Yoga og Meditationsskole,12.5744800,55.6818700
Schools,Amager International School,12.6349351,55.6481094
Schools,Atheneskolen,12.4833149,55.7378603
Schools,Borgens Køreskole,12.5206198,55.7306777
Schools,Studieskolen,12.5845717,55.6826836
Schools,Johan Borups Højskole,12.5774340,55.6738033
Schools,Improv Comedy Copenhagen,12.5747590,55.6759970
Schools,Københavns Madhus,12.5632535,55.6675422
Schools,Frederiksberg Seminarium,12.5293170,55.6830990
Schools,Søværnets Officersskole,12.5715928,55.7173559
Schools,Forsvarsakademiet,12.5731891,55.7176443
Schools,Goethe Institut,12.5731850,55.6827557
Schools,Institut Sankt Joseph,12.5822440,55.6941452
Schools,Teater butikken,12.5628584,55.6681532
Schools,CPH Cooking Class,12.5897706,55.6791516
Schools,Sunrise International Preschool,12.5702192,55.7258519
Schools,SingularityU Nordic,12.5534944,55.7043392
Schools,Hvidovre Musikskole,12.4761544,55.6489521
Schools,Skolen på Strandboulevarden,12.5880004,55.7023037
Schools,FGU Hovedstaden - Valby,12.5040440,55.6583890
Schools,Københavns Professionshøjskole,12.5372896,55.6640976
Schools,JUC SERVICE,12.5646570,55.6749490
Schools,Den Grønne Friskole,12.6213089,55.6644583
Schools,Langelinieskolen Holsteinsgade,12.5865382,55.6995722
Schools,Fensmarkskolen,12.5521220,55.6958778
Schools,Det frie Gymnasium,12.5454588,55.6891376
Schools,Østerbro Lilleskole,12.5801014,55.7108408
Schools,Terrible,12.5404065,55.6784806
Schools,TEC Frederiksberg,12.5190374,55.6828992
Schools,European School Copenhagen,12.5338545,55.6669100
Schools,NEXT,12.5405445,55.7184481
Schools,Afdeling hvidovre FGU Vestegnen,12.4494932,55.6324046
Schools,FGU Hovedstaden - Østerbro Køkken og Klima,12.5756591,55.6905392
Schools,FGU Gastro,12.5440289,55.6944710
Schools,Kastrupgårdsskolen,12.62782206666666666666666667,55.63319231666666666666666667
Schools,Korsvejens Skole,12.61851288888888888888888889,55.63449102222222222222222222
Schools,Skottegårdsskolen,12.63756468,55.63742132
Schools,Kirsebærhavens Skole,12.50316212307692307692307692,55.64852703846153846153846154
Schools,Nørre Fælled Skole,12.5584738,55.70506662
Schools,Risbjergskolen,12.48814745,55.64101735
Schools,Skolen på Duevej,12.52768127,55.69105187
Schools,Lindevangsskolen,12.50879606,55.6803374
Schools,Ingrid Jespersens Gymnasieskole,12.57844325,55.700516475
Schools,Dansborgskolen,12.483987575,55.6305484375
Schools,HF & VUC København Syd,12.50038916666666666666666667,55.64092021666666666666666667
Schools,Strandparkskolen,12.53022412222222222222222222,55.64504374444444444444444444
Schools,Grønnemose Skole,12.49719808775510204081632653,55.72812883877551020408163265
Schools,Tinderhøj Skole,12.45027441,55.69526544
Schools,Ellebjerg Skole,12.53232154,55.65055549
Schools,Esajasskolen,12.47966760666666666666666667,55.65057626
Schools,Enghavegård Skole,12.47675388,55.72449974
Schools,Korsager Skolen,12.46992599285714285714285714,55.70909353571428571428571429
Schools,Skolen på La Cours Vej,12.518279975,55.6850619375
Schools,Vadgård Skole,12.48761028,55.75122728
Schools,Gladsaxe Gymnasium,12.49144467272727272727272727,55.74218092727272727272727273
Schools,Kvikmarkens Privatskole,12.4887923375,55.747259625
Schools,Nørregård,12.42871778333333333333333333,55.66400883333333333333333333
Schools,Elverhøjens Skole,12.44675206153846153846153846,55.72676511538461538461538462
Schools,Nørrebro Park Skole,12.54516166470588235294117647,55.68995653529411764705882353
Schools,Nyager Skole,12.44754007777777777777777778,55.68862266666666666666666667
Schools,Sønderkærskolen,12.47626736,55.64903054
Schools,Hvidovre Gymnasium & HF,12.45272366666666666666666667,55.62867338333333333333333333
Schools,Store Magleby Skole,12.63767212727272727272727273,55.59520087272727272727272727
Schools,Løjtegårdsskolen,12.61956990588235294117647059,55.62373585882352941176470588
Schools,Nordregårdsskolen,12.60099632,55.6376384
Schools,Tårnby Gymnasium,12.60437808,55.63809552
Schools,Brøndbyøster Skole,12.44754758,55.66139418
Schools,Gasværksvejens Skole,12.55707052173913043478260870,55.66993057391304347826086957
Schools,Heerup Skole,12.50917310909090909090909091,55.69242596363636363636363636
Schools,Rødkilde Skole,12.5076013,55.69716286666666666666666667
Schools,Bakkegårdsskolen,12.52569536470588235294117647,55.74689482941176470588235294
Schools,Karinedals Skole,12.49740703571428571428571429,55.69079313571428571428571429
Schools,Tre Falke Skolen,12.49778454444444444444444444,55.68005848888888888888888889
Schools,Blaagaards Seminarium,12.47691838333333333333333333,55.72306204166666666666666667
Schools,Brønshøj Gamle Skole,12.49816378,55.70342296
Schools,Utterslev Skole,12.51948690909090909090909091,55.71124027272727272727272727
Schools,Ørestad Skole,12.58146000576923076923076923,55.63110666923076923076923077
Schools,Sundbyøster Skole,12.61411086,55.651665884
Schools,Amager Lille Skole,12.61717995,55.65143061
Schools,Skelgårdsskolen,12.58728480540540540540540541,55.60516316216216216216216216
Schools,Københavns Åbne Gymnasium,12.524063725,55.65503785
Schools,Kofoeds Skole,12.61773005882352941176470588,55.66688626470588235294117647
Schools,Hanssted Skole,12.48671369166666666666666667,55.66588843333333333333333333
Schools,Ålholm Skole,12.49498371428571428571428571,55.67009925714285714285714286
Schools,Falkonergården Gymnasium og HF-Kursus,12.49528309285714285714285714,55.68130017142857142857142857
Schools,Søndermarkskolen,12.50262728,55.67440221
Schools,Lykkebo Skole,12.48478399285714285714285714,55.66011261428571428571428571
Schools,Damhusengens Skole,12.4803005,55.68615804666666666666666667
Schools,Vanløse Privatskole,12.48771544,55.68222338
Schools,Randersgades Skole,12.58088342222222222222222222,55.70579422222222222222222222
Schools,Billedskolen i Tvillingehallen,12.56336752820512820512820513,55.66827755641025641025641026
Schools,Blågårds Skole,12.55057917692307692307692308,55.68769427692307692307692308
Schools,Peder Lykke Skolen,12.59821624918032786885245902,55.65539968852459016393442623
Schools,Avedøre Skole,12.45589442666666666666666667,55.63228931333333333333333333
Schools,Øster Farimagsgade Skole,12.57786438571428571428571429,55.69259543571428571428571429
Schools,Heibergskolen,12.58184817692307692307692308,55.70298123076923076923076923
Schools,Den Classenske Legatskole,12.57577244,55.67288032
Schools,St. Petri Skole,12.56946467222222222222222222,55.67970222222222222222222222
Schools,DIA Privatskole,12.56164585,55.6902782
Schools,Lycée Français Prins Henrik,12.54834353529411764705882353,55.67406468235294117647058824
Schools,Frejaskolen,12.51546275333333333333333333,55.66504551333333333333333333
Schools,Valhøj Skole,12.45060513846153846153846154,55.67682901538461538461538462
Schools,Frederiksgård Skole,12.53892835333333333333333333,55.69663056666666666666666667
Schools,Freinetskolen,12.506205048,55.665914928
Schools,Skolen på Grundtvigsvej,12.53932615909090909090909091,55.67815352272727272727272727
Schools,Brønshøj Skole,12.49509455714285714285714286,55.70364998571428571428571429
Schools,Gladsaxe Skole,12.469665555,55.74514923
Schools,Gladsaxe Ungdomsskole,12.48561003076923076923076923,55.73543897692307692307692308
Schools,Buddinge Skole,12.504032465,55.74095523
Schools,Grønnemoseskolen,12.49977583333333333333333333,55.7314895
Schools,UCN 10. klasseskolen,12.4421288,55.66907067272727272727272727
Schools,Bjørns Internationale Skole,12.5586849,55.72173406666666666666666667
Schools,Ryparken Lille Skole,12.5582397,55.72150338
Schools,Gungehusskolen,12.46820497142857142857142857,55.6430718
Schools,Aurehøj Gymnasium,12.54528437,55.74574204
Schools,Rygaards Skole,12.55661505,55.73049784583333333333333333
Schools,Øregård Gymnasium,12.56719992727272727272727273,55.73810570909090909090909091
Schools,Tranegårdskolen,12.56714103,55.73908257
Schools,Tove Ditlevsens Skole,12.54516162727272727272727273,55.66626131818181818181818182
Schools,Skolen i Sydhavnen,12.5532061,55.6507088
Schools,Skovgårdsskolen,12.57051025,55.76607867142857142857142857
Schools,Frederiksberg Privatskole,12.45891213684210526315789474,55.67641639473684210526315789
Schools,Skolen på Islands Brygge,12.58274084761904761904761905,55.66226736984126984126984127
Schools,Valby Skole,12.50829413888888888888888889,55.66483268333333333333333333
Schools,Vigerslev Allés Skole,12.50760461428571428571428571,55.6623453
Schools,Sortedamskolens skolegård,12.57736761428571428571428571,55.69757454285714285714285714
Schools,Sortedamskolen indskolingshuset,12.57387178,55.69705734
Schools,Kirkebjerg Skole,12.48366156363636363636363636,55.69557326363636363636363636
Schools,Vidar Skolen,12.531480325,55.7537178125
Schools,Sankt Annæ Gymnasium,12.5242219375,55.6564582875
Schools,AHI International School,12.487062925,55.6877088875
Schools,"Glostrup Skole, afd. Skovvang",12.41424736,55.6839594
Schools,Amager Privatskole,12.59968028,55.62515708
Schools,Engstrandskolen,12.48026148571428571428571429,55.62631877142857142857142857
Schools,Holbergskolen,12.52982468181818181818181818,55.72431032727272727272727273
Schools,Præstemoseskolen,12.46598634666666666666666667,55.65460776
Schools,Holmegårdsskolen,12.47073878235294117647058824,55.66163806470588235294117647
Schools,Skolen Ved Sundet,12.62800905,55.65276960833333333333333333
Schools,Bellahøj Skole,12.50938298333333333333333333,55.70396894166666666666666667
Schools,Tingbjerg Skole,12.48541031428571428571428571,55.71865302857142857142857143
Schools,Nørre Gymnasium,12.47134033,55.71828225
Schools,Hendriksholm Skole,12.45743847857142857142857143,55.66905105714285714285714286
Schools,Naturcenter Amager Strand,12.6378805,55.66320233
Schools,Højdevangens Skole,12.60384102,55.64656758
Schools,Kalvebod Fælled Skole,12.57017414666666666666666667,55.62388293333333333333333333
Schools,International School of Hellerup,12.56039643076923076923076923,55.72247783076923076923076923
Schools,SOSU H,12.55706806153846153846153846,55.66752840769230769230769231
Schools,Kildevældsskolen,12.56970922142857142857142857,55.71565806428571428571428571
Schools,Amager Fælled Skole,12.59465715555555555555555556,55.66215293333333333333333333
Schools,Gerbrandskolen,12.61644370714285714285714286,55.64769693571428571428571429
Schools,Oehlenschlægersgades Skole,12.55077083333333333333333333,55.6674667625
Schools,NEXT Uddannelse København,12.53465317272727272727272727,55.70342297272727272727272727
Schools,Maglegårdsskolen,12.56954251176470588235294118,55.74351412941176470588235294
Schools,Tårnbygårdsskolen,12.6052581,55.61905238333333333333333333
Schools,Copenhagen International School,12.59857552558139534883720930,55.71194296976744186046511628
Schools,Langhøjskolen,12.48917995714285714285714286,55.62074291428571428571428571
Schools,Carolineskolen,12.57656615714285714285714286,55.72237394285714285714285714
Schools,Dyssegårdsskolen,12.5393019,55.73275168333333333333333333
Schools,Kildegård Privatskole,12.541973325,55.73710380833333333333333333
Schools,Søborg Skole,12.51172225,55.73421244285714285714285714
Schools,Gentofte Skole,12.54734883333333333333333333,55.74290716
Schools,HF-Centret Efterslægten,12.51337313333333333333333333,55.70942441111111111111111111
Schools,Uddannelsescenter UiU,12.51320716923076923076923077,55.71138485384615384615384615
Schools,Gammel Hellerup Gymnasium,12.57229327777777777777777778,55.73065275555555555555555556
Schools,Munkegårdsskolen,12.52240133333333333333333333,55.7354222
Schools,Skovmoseskolen,12.44331283888888888888888889,55.67949054444444444444444444
Schools,Bordings Friskole,12.57662133076923076923076923,55.69417701538461538461538462
Schools,Københavns Erhvervsakademi,12.537158105,55.70379713
Schools,Rådmandsgade Skole,12.55031308571428571428571429,55.69906006190476190476190476
Schools,Grøndalsvængets Skole,12.52636788333333333333333333,55.69832608333333333333333333
Schools,Det Kongelige Vajsenhus,12.5665466,55.68410006
Schools,Ordrup Gymnasium,12.5757810,55.76000557692307692307692308
Schools,Skolen ved Bülowsvej,12.54605352380952380952380952,55.6821826
Schools,Kastanievej Efterskole,12.54298448571428571428571429,55.67814947857142857142857143
Schools,Tjørnegårdsskolen,12.5306697,55.75513628
Schools,Vesterbro Ny Skole,12.54039336842105263157894737,55.66571171052631578947368421
Schools,Pilegårdsskolen,12.59485832857142857142857143,55.62063877857142857142857143
Schools,Tagensbo Skole,12.53404756,55.70946015
Schools,Skolen ved Nordens Plads,12.50319827777777777777777778,55.67007085555555555555555556
Schools,Christianshavns Skole - filialen,12.59560666666666666666666667,55.67254701111111111111111111
Schools,Frederiksberg Friskole,12.51990253529411764705882353,55.6775696
Schools,Sølvgades Skole,12.58319900666666666666666667,55.68648532333333333333333333
Schools,Sankt Annæ Skole,12.60768705714285714285714286,55.65383188571428571428571429
Schools,Strandvejsskolen,12.579171575,55.7117768125
Schools,Skovshoved Skole,12.59434802105263157894736842,55.7614576
Schools,Brøndby Idrætsefterskole,12.41641396153846153846153846,55.65149704615384615384615385
Schools,Johannesskolen,12.50151745555555555555555556,55.67459871111111111111111111
Schools,Byens Skole,12.50594297142857142857142857,55.6582065
Schools,Husum Skole,12.47355286666666666666666667,55.70556205
Schools,Vibenshus Skole,12.57903997142857142857142857,55.70876697142857142857142857
Schools,Mørkhøj Skole,12.46856049428571428571428571,55.72367173714285714285714286
Schools,Niels Steensens Gymnasium,12.56655111739130434782608696,55.70794500869565217391304348
Schools,Danmarks Medie- og Journalisthøjskole,12.54178931764705882352941176,55.72311784117647058823529412
Schools,Skolen i Peter Vedels Gade,12.59327615833333333333333333,55.66583080833333333333333333
Schools,Sluseholmen Skole,12.55492987272727272727272727,55.65547401818181818181818182
Schools,Bavnehøj Skole,12.53578526315789473684210526,55.65737131578947368421052632
Schools,Lundehusskolen,12.54559049090909090909090909,55.71802543636363636363636364
Schools,N. Zahles Gymnasieskole,12.56947346125937554508983080,55.68246273105703819989534277
Schools,Rødovre Skole,12.46361295625,55.682258325
Schools,Dyvekeskolen,12.59651497222222222222222222,55.64800462222222222222222222
Schools,Busses Skole,12.52230546,55.74523128
Schools,Christianshavns Gymnasium,12.59563513863636363636363636,55.6732753401515151515151515
Schools,Frydenhøjskolen,12.4638782,55.6251727875
Schools,Guldberg Skole,12.55326904279914529914529914,55.69399210630341880341880342
Schools,Skolen ved Søerne,12.55351469028669234060761660,55.67829955878975895022108117
Restaurants,Nørrebro Bryghus Restaurant,12.5639074,55.6902172
Restaurants,Ingolfs Kaffebar,12.6119742,55.6501334
Restaurants,Rio Bravo,12.5730625,55.6742501
Restaurants,Sticks'n'Sushi,12.5547131,55.6697106
Restaurants,Viet Nam Nam,12.5376527,55.6856353
Restaurants,Kafe Kapers,12.5768017,55.7050842
Restaurants,Wagamama,12.5690757,55.6722759
Restaurants,Il Ponte,12.5718891,55.6765807
Restaurants,Wining & Dining,12.5754143,55.6797762
Restaurants,Ristorante Amalfi,12.5753490,55.6794330
Restaurants,Peder Oxe,12.5759776,55.6796537
Restaurants,Bøf & Ost,12.5759530,55.6795485
Restaurants,Cafe Victor,12.5832761,55.6807127
Restaurants,Madklubben Grill,12.5804521,55.6803781
Restaurants,La Vecchia Signora,12.5824969,55.6809107
Restaurants,L'Alsace,12.5828713,55.6807191
Restaurants,Mama Rosa,12.5805759,55.6790105
Restaurants,Jensen's Bøfhus Axeltorv,12.5644933,55.6763037
Restaurants,La Galette,12.5695321,55.6778757
Restaurants,L'education Nationale,12.5697430,55.6782280
Restaurants,Dubrovnik,12.5680739,55.6781715
Restaurants,Jensen's Bøfhus,12.5616617,55.6733149
Restaurants,Deep,12.5977260,55.6668710
Restaurants,Rimini,12.5971417,55.6681601
Restaurants,Krog's Fiskerestaurant,12.5785538,55.6777413
Restaurants,Ankara,12.5741096,55.6811269
Restaurants,Eros,12.5752015,55.6793725
Restaurants,Nova,12.5737580,55.6791314
Restaurants,Shahi,12.5727364,55.6787069
Restaurants,Hong Cheng,12.5754032,55.7089635
Restaurants,Safir Kebab,12.5441844,55.6904980
Restaurants,Els,12.5878215,55.6809684
Restaurants,Zeleste,12.5883161,55.6809061
Restaurants,Italiano,12.5738811,55.6792833
Restaurants,Wok On,12.5803408,55.6780529
Restaurants,Restaurant Jacobsen,12.5745415,55.6826871
Restaurants,Marv & Ben,12.5769463,55.6772838
Restaurants,Le Basilic,12.5562393,55.6719106
Restaurants,Apropos,12.5610473,55.6707876
Restaurants,Ban Gaw,12.5573535,55.6690839
Restaurants,Porn-Sak,12.5577022,55.6692654
Restaurants,Beijing,12.5703318,55.6770342
Restaurants,Flora's Steakhouse,12.5596734,55.6733045
Restaurants,La Fiesta Mexicana,12.5452292,55.6732568
Restaurants,Akropolis,12.5515978,55.6843632
Restaurants,Nyu Sakura,12.5514227,55.6841005
Restaurants,Radio,12.5543323,55.6819882
Restaurants,Nytorv,12.5736687,55.6772100
Restaurants,Zafran,12.5595118,55.6873787
Restaurants,Salt,12.5941964,55.6820201
Restaurants,Café Le perr Valby,12.5150828,55.6665230
Restaurants,Hotel Fy & Bi,12.5145524,55.6664428
Restaurants,Pintxos,12.5660522,55.6844442
Restaurants,Altopalato,12.5738669,55.7360678
Restaurants,Le Saint Jacques,12.5779306,55.7034223
Restaurants,Sushi Nørregade,12.5712029,55.6818262
Restaurants,Sticks'N'Sushi,12.5647608,55.6841991
Restaurants,Cafe Munk,12.5673006,55.6843897
Restaurants,Restaurant Koefoed,12.5854059,55.6829182
Restaurants,Cantina,12.5841755,55.6823201
Restaurants,Allegade 10,12.5332170,55.6760001
Restaurants,Kreta III,12.4838727,55.6919588
Restaurants,Chaophraya,12.5071737,55.6931331
Restaurants,Sticks'N'Sushi Valby,12.5137650,55.6658044
Restaurants,Kebabish,12.5604195,55.6731288
Restaurants,Den Lille Fede,12.5856599,55.6821848
Restaurants,Restaurant Vita,12.5860671,55.6826427
Restaurants,Hereford Steak,12.5865208,55.6827296
Restaurants,Royal Garden,12.5856999,55.6841125
Restaurants,El Viejo Mexico,12.5876301,55.6844872
Restaurants,n/a,12.6522667,55.6407715
Restaurants,Bindia,12.5761933,55.6986522
Restaurants,Sliders,12.5621297,55.6871479
Restaurants,Vestauranten,12.5646074,55.6695947
Restaurants,Hebron,12.5607845,55.6726211
Restaurants,Godt,12.5827205,55.6822476
Restaurants,Chili's,12.5885828,55.6345603
Restaurants,Ny Zi Yang,12.5193213,55.7514077
Restaurants,Aristo,12.5791679,55.6692418
Restaurants,Temporada Tapasbodega,12.5541773,55.6844488
Restaurants,Tribeca NV,12.5343603,55.7062497
Restaurants,Ricemarket,12.5744665,55.6828339
Restaurants,Kreta,12.5476150,55.6934573
Restaurants,Restaurant Klubben,12.5457687,55.6711195
Restaurants,Bjælkehuset,12.5253346,55.6670575
Restaurants,Hjem Sushi,12.5192664,55.6619369
Restaurants,SAS klubben,12.6384621,55.6333187
Restaurants,La Sirena,12.5711537,55.7535076
Restaurants,Romarin,12.5736203,55.6962411
Restaurants,Nimb Brasserie,12.5666399,55.6735634
Restaurants,Hard Rock Cafe,12.5690951,55.6766219
Restaurants,Famo 51,12.5503465,55.6742769
Restaurants,Famo,12.5506713,55.6723741
Restaurants,Kareten,12.5994220,55.6647417
Restaurants,La Buca degli Artisti,12.5117591,55.6932938
Restaurants,Spiseloppen,12.5972675,55.6739921
Restaurants,Morgenstedet,12.6031876,55.6737546
Restaurants,Thai Lanna,12.5767233,55.7390862
Restaurants,Iki Sushi,12.5827876,55.7021553
Restaurants,Kiin Kiin,12.5573009,55.6918479
Restaurants,La Neta,12.5530946,55.6692157
Restaurants,Je t’aime,12.5576571,55.6653161
Restaurants,Mae Pen,12.5458449,55.6969787
Restaurants,Scarpetta,12.5522738,55.6854535
Restaurants,Ravelinen,12.5957099,55.6703637
Restaurants,Letz Sushi Christianshavn,12.5919520,55.6735371
Restaurants,Asador,12.5900587,55.6723928
Restaurants,Cofoco,12.5583805,55.6718039
Restaurants,Les trois cochons,12.5500290,55.6737032
Restaurants,Vespa,12.5890942,55.6857251
Restaurants,Tony's,12.5917974,55.6780986
Restaurants,Madklubben Bistro de luxe,12.5877522,55.6841610
Restaurants,MASH Steakhouse Bredgade,12.5883393,55.6817859
Restaurants,Taormina,12.5811113,55.6985159
Restaurants,Ponte Vecchio,12.5754894,55.6656284
Restaurants,Hatoba,12.5792029,55.6684525
Restaurants,Sticks 'n' sushi,12.5755799,55.6905436
Restaurants,Restaurant Shezan,12.5585764,55.6709081
Restaurants,Domhusets Smørrebrød,12.5720495,55.6767843
Restaurants,Harbour Grill,12.5880250,55.6808060
Restaurants,Nyhavn 17,12.5891305,55.6805239
Restaurants,Told & snaps,12.5917501,55.6799914
Restaurants,La Sirène,12.5918566,55.6798100
Restaurants,Café Petersborg,12.5929855,55.6873553
Restaurants,Bistro Boheme,12.5912553,55.6873169
Restaurants,Kokkeriet,12.5850836,55.6875403
Restaurants,A Hereford Beefstouw,12.5661037,55.6748243
Restaurants,Restaurant Grønnegade,12.5832999,55.6816089
Restaurants,Pastis,12.5821790,55.6825061
Restaurants,Sole D Italia,12.5764619,55.6799188
Restaurants,Le Pavé,12.5754643,55.6797205
Restaurants,Giin Khao,12.5982718,55.6663991
Restaurants,Restaurant Viva,12.5803577,55.6703413
Restaurants,Susu Sushi,12.5562250,55.6911220
Restaurants,Letz Sushi,12.5597090,55.6904070
Restaurants,Restaurant Long Feng,12.5920754,55.6718729
Restaurants,Christianshavns Færgecafé,12.5924697,55.6754822
Restaurants,Mother,12.5576615,55.6685053
Restaurants,Cafe Lindevang,12.5127320,55.6792148
Restaurants,Kate`s Joint,12.5587270,55.6869993
Restaurants,Address,12.5864534,55.7259303
Restaurants,Kirin Sushi,12.4728798,55.6579458
Restaurants,Restaurant Lynetten,12.6185022,55.6891576
Restaurants,Oysters & Grill,12.5516050,55.6928738
Restaurants,La Rocca,12.5661151,55.6847357
Restaurants,Höst,12.5661022,55.6832824
Restaurants,Yuan Hong,12.5738763,55.7131196
Restaurants,Spuntino,12.5521715,55.6727576
Restaurants,Restaurant Maven,12.5815308,55.6785780
Restaurants,Magasasa,12.5630101,55.6723586
Restaurants,La Petanque,12.5679960,55.6834780
Restaurants,Søpromenaden,12.5782790,55.6977350
Restaurants,Aamanns Etablissement,12.5750967,55.6899665
Restaurants,Under Uret,12.5750925,55.6896143
Restaurants,Stue 11,12.5730861,55.6886663
Restaurants,Phønix,12.5736627,55.6823983
Restaurants,Sporvejen,12.5756760,55.6794530
Restaurants,Jensens Mad,12.6232304,55.6288970
Restaurants,Nakorn Thai,12.5891791,55.6862276
Restaurants,Restaurant M,12.5871782,55.6834973
Restaurants,Rebel,12.5869911,55.6832778
Restaurants,The Red Box,12.5867130,55.6829652
Restaurants,Trattoria Fiat,12.5858844,55.6813679
Restaurants,Lumskebugten,12.5980095,55.6883845
Restaurants,Den Kinesiske Mur,12.6149633,55.6455082
Restaurants,China Vietnam House,12.4887589,55.6319490
Restaurants,Absolut Sushi,12.4890164,55.6321246
Restaurants,Barshu,12.5967108,55.6679838
Restaurants,Cafe Gl. Torv,12.5714461,55.6780117
Restaurants,Nyhavns Hereford House,12.5907903,55.6800695
Restaurants,Skindbuksen,12.5844793,55.6797421
Restaurants,Tivoli Hallen,12.5730884,55.6746192
Restaurants,Restaurant Puk,12.5739423,55.6761458
Restaurants,Galathea Kroen,12.5745289,55.6766459
Restaurants,Sakura,12.5801549,55.6821031
Restaurants,Det Lille Apotek,12.5745687,55.6803250
Restaurants,Scurry Hub,12.5725665,55.6815692
Restaurants,San Giorgio's,12.5739764,55.6835622
Restaurants,Brdr. Price,12.5743876,55.6839789
Restaurants,Schønnemann,12.5760230,55.6828150
Restaurants,El Meson,12.5756960,55.6823570
Restaurants,Nyhavns Færgekro,12.5883495,55.6807141
Restaurants,Heering,12.5889850,55.6805540
Restaurants,Gallionen,12.5896193,55.6803658
Restaurants,Cap Horn,12.5895232,55.6804068
Restaurants,Venezia,12.5901560,55.6802483
Restaurants,Nyhavn 37,12.5905460,55.6801370
Restaurants,Restaurant Havfruen,12.5906780,55.6801110
Restaurants,Ved Kajen,12.5909221,55.6800414
Restaurants,Sahil,12.5893870,55.6769110
Restaurants,Fuego,12.5890620,55.6780630
Restaurants,Gilleleje,12.5895616,55.6797730
Restaurants,Tango & Vinos,12.5897144,55.6791271
Restaurants,Mêlée,12.5426451,55.6757981
Restaurants,Geranium,12.5720401,55.7037103
Restaurants,Zahida,12.5697732,55.6845789
Restaurants,Ristorante Garda,12.4879424,55.6684876
Restaurants,Kung Fu II Izakaya Bar,12.5625650,55.6889266
Restaurants,Hos Fischer,12.5807559,55.7017253
Restaurants,Fuji Sushi,12.5314567,55.6709733
Restaurants,Hansens Gamle Familiehave,12.5313911,55.6726005
Restaurants,Krøgers Familiehave,12.5306595,55.6711876
Restaurants,M.G. Petersens Familiehave,12.5307480,55.6714583
Restaurants,Grød,12.5428999,55.6936028
Restaurants,Bindia Elmegade,12.5582548,55.6895910
Restaurants,Nha Trang,12.5467207,55.6874043
Restaurants,Kaleidoskop,12.5019986,55.6787358
Restaurants,Rasoi,12.5822757,55.6350236
Restaurants,Sushi One,12.5858523,55.7031203
Restaurants,Ranee's,12.5572861,55.6867180
Restaurants,Pluto,12.5852555,55.6834694
Restaurants,Måltid,12.5314736,55.7159674
Restaurants,Tandoori Masala,12.5588080,55.6884560
Restaurants,Saigon,12.5024974,55.6520176
Restaurants,Scarpetta - Islands Brygge,12.5667896,55.6572827
Restaurants,Dag H.,12.5806623,55.6958392
Restaurants,Mielcke & Hurtigkarl,12.5309092,55.6747014
Restaurants,Kitchenette,12.5493551,55.6812097
Restaurants,Københavner Caféen,12.5750250,55.6781664
Restaurants,Kronborg,12.5744986,55.6776072
Restaurants,Palæo Pilestræde,12.5805570,55.6806487
Restaurants,Marchal,12.5847233,55.6804417
Restaurants,Kadeau København,12.5888555,55.6722547
Restaurants,Formel B,12.5355288,55.6706980
Restaurants,AOC,12.5888493,55.6832803
Restaurants,Colombia Pizza & Restaurant,12.5421135,55.6705722
Restaurants,Restaurant Tårnet,12.5804107,55.6762303
Restaurants,Hellerup Sejlklub,12.5809649,55.7312680
Restaurants,Enomania,12.5319708,55.6706559
Restaurants,Omakase,12.5353469,55.6703822
Restaurants,Sejlklubbernes Restaurant,12.6006081,55.7632334
Restaurants,Skovshoved Kro,12.5968422,55.7589166
Restaurants,Mesón España,12.5576346,55.6718168
Restaurants,Frederiks Have,12.5251614,55.6791194
Restaurants,Phoenix Running Sushi,12.5180707,55.7494174
Restaurants,Famo Metro,12.5795519,55.6957451
Restaurants,Sticks & Sushi Hotel Tivoli,12.5659600,55.6658800
Restaurants,Sankt Peder,12.5757475,55.7307670
Restaurants,Sans Souci,12.5414017,55.6762611
Restaurants,Punjab,12.5204573,55.6664308
Restaurants,Kanal Caféen,12.5767875,55.6743994
Restaurants,Palæo Torvehal 1 Stade E1-F1,12.5691044,55.6838775
Restaurants,Teppan House,12.5011800,55.6848500
Restaurants,Senorita,12.5549211,55.6695262
Restaurants,Il Buco,12.5802158,55.6663582
Restaurants,China Garden,12.5150515,55.7340999
Restaurants,Bæst,12.5559090,55.6922190
Restaurants,Restaurant Strandlund,12.5838554,55.7439102
Restaurants,Takii,12.5510082,55.6965107
Restaurants,No. 2,12.5845011,55.6724145
Restaurants,Govinda,12.5563467,55.6827437
Restaurants,Fishmarket,12.5844498,55.6809171
Restaurants,McJoy's Choice,12.5913418,55.6799215
Restaurants,Trattoria Italiana,12.5764486,55.6800752
Restaurants,Cocks & Cows,12.5788252,55.6777981
Restaurants,Da Claudio,12.5320044,55.6869918
Restaurants,9-Ni Running Sushi,12.4582803,55.6714958
Restaurants,"Cafe og Ølhalle ""1892""",12.5702547,55.6849944
Restaurants,Uki Bento,12.5613942,55.6712966
Restaurants,Cock's & Cows SP34,12.5665053,55.6787142
Restaurants,Fu Wa,12.5419871,55.6885295
Restaurants,YaYa Sushi,12.4920020,55.7052830
Restaurants,Ahaaa Det Arabiske Madsted,12.5584645,55.6864878
Restaurants,KöD,12.5823423,55.6776029
Restaurants,Baan Thai Isarn,12.5602574,55.6706228
Restaurants,Le Diamant,12.5804260,55.6790273
Restaurants,L'Anfora,12.5772750,55.6834866
Restaurants,Restaurant Karla,12.5741057,55.6736846
Restaurants,L'Enoteca di Mr. Brunello,12.5740530,55.6712180
Restaurants,Roberta,12.5626665,55.6876013
Restaurants,Kinome,12.5763340,55.7280680
Restaurants,Husmanns Vinstue,12.5701440,55.6778099
Restaurants,Indian Maharaja,12.5869692,55.7043566
Restaurants,Bone's Herlev,12.4503611,55.7185435
Restaurants,Restaurant Tokyo,12.5494530,55.6724308
Restaurants,Kashmir,12.5874463,55.6989421
Restaurants,Riz Raz,12.5742858,55.6801828
Restaurants,Vesterbros Originale Burgerrestaurant,12.5584395,55.6708624
Restaurants,Kong Hans Kælder,12.5840367,55.6787557
Restaurants,Bistro Royal,12.5850751,55.6814081
Restaurants,Restaurant Ayuttaya,12.5528263,55.6859501
Restaurants,Ramen To Biíru,12.5540103,55.6878253
Restaurants,Ravage,12.5860369,55.6813283
Restaurants,Salt & Pepper,12.6368397,55.6449878
Restaurants,Jin Yuan Restaurant,12.6413905,55.6366751
Restaurants,The American Restaurant & Diner,12.5776373,55.6298278
Restaurants,Grillen Burger Bar,12.5913844,55.6715098
Restaurants,Susets Køkken,12.4981200,55.6255230
Restaurants,China Palace,12.5620654,55.6743178
Restaurants,Armandos Trattoria,12.5381927,55.7535121
Restaurants,Øresund,12.5966339,55.7641381
Restaurants,Il Gabbiano restaurant og café,12.5997478,55.7620735
Restaurants,Milano Restaurant,12.5780316,55.6302032
Restaurants,Grand B,12.5888386,55.7530188
Restaurants,Op La restaurant,12.5078164,55.7301435
Restaurants,Restaurant Mellemfortet,12.5426159,55.6377277
Restaurants,Sushi Lovers Ordrupvej,12.5760718,55.7624262
Restaurants,Ca',12.5642224,55.7323185
Restaurants,Pizzeria Barletta,12.5236922,55.7290289
Restaurants,Il Nuovo Rugantino,12.5031807,55.7401767
Restaurants,Sushi Familie,12.5799881,55.7642554
Restaurants,Scandic Restaurant,12.4194112,55.6682618
Restaurants,Restaurant Hong Yu,12.4660810,55.7100730
Restaurants,Esthers Spisehus,12.5655333,55.7327042
Restaurants,Restaurant HIK,12.5658126,55.7435749
Restaurants,Restaurant Yami Sushi,12.5764180,55.7307270
Restaurants,Zi Yang,12.4750240,55.6979070
Restaurants,Dong Fang,12.4729697,55.6576749
Restaurants,Cantinos,12.5350470,55.7139460
Restaurants,Punjabi,12.6119260,55.6511422
Restaurants,Royal Cuisine,12.5578782,55.7082863
Restaurants,Duang Jai,12.5781178,55.7096519
Restaurants,New Japan,12.5801946,55.7011678
Restaurants,Restaurant Den Lykkelige Familie,12.6039930,55.6556260
Restaurants,Fresh Sushi,12.6180400,55.6638351
Restaurants,Prismen Café - Øens Spisested,12.6108770,55.6666360
Restaurants,Ristorante Tio Mario's,12.5939267,55.6983219
Restaurants,Valby Idrætspark Restaurationen,12.5135938,55.6497895
Restaurants,Bindia Amagerbrogade,12.6091025,55.6564242
Restaurants,Bones Amager,12.6085209,55.6572864
Restaurants,Omar Khayam Den Persiske Restaurant,12.5217669,55.6665494
Restaurants,Wokamok 2000,12.5245610,55.6837134
Restaurants,Kon Tiki,12.6034021,55.6827904
Restaurants,Restaurant Menu'en,12.5979076,55.6617289
Restaurants,Islands Brygge Wok,12.5801120,55.6639807
Restaurants,Sushi factory amager,12.6007960,55.6638090
Restaurants,Filini,12.5858715,55.6673341
Restaurants,Xing Sushi,12.5056505,55.6788468
Restaurants,Restaurant Frksbrg,12.5320979,55.6783936
Restaurants,Turesen,12.5639983,55.6813932
Restaurants,Uma,12.5645739,55.6813469
Restaurants,Blue Elephant,12.5858004,55.6671884
Restaurants,Mash Penthouse,12.5653754,55.6662129
Restaurants,Josty,12.5295951,55.6738208
Restaurants,Danafrika,12.5358800,55.6969100
Restaurants,Dumpo,12.5513407,55.6664470
Restaurants,Restaurant Il Grappolo Blu Divina Patria,12.5537813,55.6807476
Restaurants,Restaurant Anarki,12.5546310,55.6793450
Restaurants,Osteria 16,12.5457080,55.6676180
Restaurants,Candido,12.5299759,55.6871785
Restaurants,20 a,12.5630017,55.6892750
Restaurants,San Marco Junior,12.5337989,55.6792203
Restaurants,Famosi E Golosi,12.5405472,55.6847688
Restaurants,Fabio Vinbar & Restaurant,12.5370129,55.6836466
Restaurants,Lillians Smørrebrød,12.5777720,55.6719238
Restaurants,Hidmona Restaurant,12.5551904,55.6888015
Restaurants,Kato Sushi,12.5505290,55.6825390
Restaurants,Karmaman,12.5428116,55.6734812
Restaurants,Al-Diwan,12.5480869,55.6722820
Restaurants,Ammessi,12.5519310,55.6727887
Restaurants,Restaurant Krebsegården,12.5699553,55.6787037
Restaurants,Fu Hao,12.5627315,55.6716979
Restaurants,Teaterkælderen,12.5555639,55.6732196
Restaurants,The Grill,12.5595006,55.6750742
Restaurants,Restaurant Amalie,12.5919400,55.6827140
Restaurants,Fru Nimb,12.5660283,55.6735593
Restaurants,Det Færøske Hus Restaurant,12.5601300,55.6727910
Restaurants,Diamond Rice,12.5883670,55.6822905
Restaurants,L'Appetito,12.5616858,55.6756538
Restaurants,Slotskælderen hos Gitte Kik,12.5808754,55.6780017
Restaurants,Restaurant Sankt Annæ,12.5912272,55.6813617
Restaurants,District Tonkin,12.5881236,55.6850364
Restaurants,Scandic Front,12.5933844,55.6812796
Restaurants,NyhavnC,12.5902748,55.6801972
Restaurants,Restaurant Fyrtøjet,12.5887007,55.6806168
Restaurants,Restaurant Leonore Christine,12.5885522,55.6806516
Restaurants,The Union Kitchen,12.5892920,55.6813550
Restaurants,Midori,12.5831752,55.6812021
Restaurants,Tight,12.5764893,55.6781301
Restaurants,NÆRT,12.5776173,55.6815961
Restaurants,Brew Pub København Restaurant,12.5694678,55.6770836
Restaurants,Retour Steak,12.5818496,55.6817271
Restaurants,Restaurant og Cafe Nytorv Friluft,12.5736015,55.6771833
Restaurants,Bar' Vin,12.5761940,55.6807390
Restaurants,Brdr. Price i Tivoli,12.5679346,55.6741644
Restaurants,Izumi,12.5769586,55.7168983
Restaurants,Gosushi,12.5323650,55.7078820
Restaurants,Sachi Sushi Borgergade,12.5852054,55.6834911
Restaurants,Skagen Fiskerestaurant kbh,12.5806831,55.6792416
Restaurants,Papa Ramen,12.5541382,55.6685750
Restaurants,Bollyfood Kødbyen,12.5585741,55.6688397
Restaurants,Restaurant og Cafe Nielsen,12.4376446,55.6658246
Restaurants,Restaurant Hummer,12.5925460,55.6796030
Restaurants,Hjemme,12.5757099,55.6906367
Restaurants,Yoki restaurant,12.4800090,55.6368660
Restaurants,Duniya palace,12.5336980,55.6789170
Restaurants,Restaurant India,12.5350587,55.6817367
Restaurants,Spontan,12.5558833,55.6919041
Restaurants,Pincho Nation A/S,12.5643570,55.6764000
Restaurants,The Market,12.5815406,55.6802105
Restaurants,Akiba Sushi & Wok,12.5408698,55.6846825
Restaurants,Max,12.5726978,55.6782998
Restaurants,Admiralgade 26,12.5821143,55.6776224
Restaurants,Voraz,12.5755837,55.6772807
Restaurants,Brooklyn Bar,12.5914182,55.6799959
Restaurants,Lundgren V.I.P,12.5547773,55.6729608
Restaurants,Strandlund Vennerslund Restaurant,12.5865440,55.7434780
Restaurants,Staldcafeen,12.5869458,55.7570798
Restaurants,Bowlernes Hal,12.5154233,55.6998899
Restaurants,Det Islamiske Trossamfund Restaurant,12.5254450,55.7083160
Restaurants,Kompasset,12.5927720,55.6795496
Restaurants,Viften,12.5669807,55.6740013
Restaurants,Chim Chim,12.5642035,55.6756000
Restaurants,Palæo City,12.5805701,55.6793593
Restaurants,Lalala,12.5951708,55.6766010
Restaurants,Nino e Franco,12.5656456,55.6929993
Restaurants,Otto,12.5936223,55.6979574
Restaurants,Deligreco,12.5347780,55.6781041
Restaurants,Sushi2500 Smallegade,12.5299118,55.6789481
Restaurants,YO! Sushi,12.6488906,55.6282918
Restaurants,L'Imperatore,12.5771052,55.7013779
Restaurants,Mæsk,12.5249619,55.6841046
Restaurants,Sankt Annæ 8,12.5913373,55.6738544
Restaurants,Asia House,12.5096072,55.6947686
Restaurants,Mevlana,12.5513956,55.6968977
Restaurants,Gasten,12.5894090,55.6804302
Restaurants,Bevi Bevi,12.5501836,55.6680075
Restaurants,Barock,12.5879591,55.6808434
Restaurants,Vietthai,12.5318230,55.7084010
Restaurants,Nagoya,12.5542313,55.6755107
Restaurants,Väkst,12.5671517,55.6788004
Restaurants,Kødbyens Fiskebar,12.5592700,55.6678500
Restaurants,Uformel,12.5644700,55.6765300
Restaurants,Paté Paté,12.5586400,55.6691700
Restaurants,Restaurant Gorilla,12.5611400,55.6677000
Restaurants,Restaurant Løjtehus,12.6213800,55.6229200
Restaurants,Oranje af Svendborg,12.5926112,55.6793870
Restaurants,Nyboders Køkken,12.5879811,55.6867773
Restaurants,Go-Kart Banen Restaurant,12.6193481,55.6789236
Restaurants,Jah,12.5574865,55.6707131
Restaurants,Det Simrer,12.5852357,55.7033707
Restaurants,Ramen to Biiru,12.5429694,55.6656945
Restaurants,Mangal,12.5587233,55.6671559
Restaurants,Restaurant Pilen,12.5291573,55.6715060
Restaurants,Wok Flame Thai,12.6347600,55.6381910
Restaurants,"Meyers Køkken, Business Center",12.6420944,55.6458599
Restaurants,Trattoria Nuova Italia,12.4590640,55.6959300
Restaurants,Tivoli Hotel og Tivoli Congress Center Restaurant Tivoli Vie,12.5660006,55.6658853
Restaurants,NOHO,12.5579410,55.6676990
Restaurants,Claras,12.4561855,55.6792394
Restaurants,Ambassaden og Konsulatet,12.5833449,55.6937622
Restaurants,Lupa,12.5851589,55.7035065
Restaurants,Mangia,12.5543970,55.6732640
Restaurants,Vandvid,12.5505625,55.6473438
Restaurants,Jazzhus Montmartre,12.5824601,55.6820021
Restaurants,Café Patina,12.5479378,55.6679591
Restaurants,Spisestuen,12.5559913,55.7272438
Restaurants,Brasserie Barner,12.5782619,55.7061070
Restaurants,Christianshavnerfærgen M/F,12.5926933,55.6755943
Restaurants,WokShop Valby,12.5148241,55.6662829
Restaurants,Brace,12.5686560,55.6795823
Restaurants,Restaurant Flammen,12.5614610,55.6802520
Restaurants,DADA,12.5718683,55.6806777
Restaurants,Fleisch,12.5587033,55.6691055
Restaurants,Scandic Sluseholmen,12.5450024,55.6434709
Restaurants,Restaurant Jordnær,12.5412167,55.7481057
Restaurants,Bistro Couloir,12.6309498,55.6586612
Restaurants,Garden,12.5779925,55.6832992
Restaurants,Gro spiseri,12.5641720,55.7112828
Restaurants,Oregano Huset,12.5171663,55.6904099
Restaurants,Katsura,12.4744897,55.7115144
Restaurants,Nr.30,12.5633960,55.6818869
Restaurants,Nærvær,12.5964137,55.6771212
Restaurants,Mammas,12.5712535,55.6758977
Restaurants,Kasai 2 Nørrebro,12.5373907,55.6966884
Restaurants,Mudan Restaurant,12.5036920,55.6843310
Restaurants,Restaurant Barr,12.5962675,55.6779025
Restaurants,Corsa Pizza,12.5964343,55.7066274
Restaurants,Aamanns 1921,12.5759400,55.6802100
Restaurants,Tèrra,12.5706939,55.6946659
Restaurants,The Pescatarian,12.5961728,55.6878773
Restaurants,Restaurant Kultorvet,12.5746307,55.6824392
Restaurants,Trio,12.5657140,55.6758290
Restaurants,Tavola Calda,12.5645400,55.7313530
Restaurants,Magi Sushi Restaurant,12.4713071,55.7120086
Restaurants,Restaurant Silo,12.5979720,55.7081532
Restaurants,Frank,12.5842178,55.6811035
Restaurants,Sticks 'n' Sushi,12.5653110,55.6742794
Restaurants,Chefoncall,12.5803277,55.6799310
Restaurants,Noma,12.6107888,55.6825096
Restaurants,The Fat Pike,12.5805360,55.6664410
Restaurants,Ewalds,12.5334459,55.6776484
Restaurants,Khmer Restaurant,12.5892320,55.6858150
Restaurants,Bazaar,12.5862493,55.6837592
Restaurants,Urten,12.5693542,55.6786267
Restaurants,Mash Frederiksberg,12.5424716,55.6763213
Restaurants,Trattoria Da Alfredo,12.4827805,55.6868165
Restaurants,Coq en Pâte,12.5770248,55.7136261
Restaurants,Ramen To Biiru,12.5810648,55.7017375
Restaurants,India,12.4934818,55.6939367
Restaurants,Selma,12.5699647,55.6847517
Restaurants,Meille,12.5681243,55.6789881
Restaurants,Blaaregn,12.5470035,55.6877197
Restaurants,Ark,12.5682623,55.6852177
Restaurants,Nebbiolo Antipasti,12.5898703,55.6785116
Restaurants,Frenchy,12.5880910,55.6849690
Restaurants,Food Club,12.5628680,55.6881870
Restaurants,Engtoftegård,12.4407680,55.6552320
Restaurants,Punk Royal,12.5878103,55.6835352
Restaurants,Salon,12.5916170,55.6862387
Restaurants,Trattoria SUD,12.5683542,55.6847132
Restaurants,Mahalle,12.5655588,55.6837192
Restaurants,Restaurant Alouette,12.5759640,55.6625940
Restaurants,Iluka,12.5892445,55.6777522
Restaurants,Mercante,12.5759916,55.6791528
Restaurants,Boathouse,12.5950847,55.6774404
Restaurants,Halifax Burgers Skolegade,12.5135861,55.6654888
Restaurants,Letz Sushi Store Kongensgade,12.5868410,55.6829990
Restaurants,Undici,12.5941040,55.6751300
Restaurants,Bistro Central,12.5824870,55.6816643
Restaurants,MaMeMi,12.5479690,55.6678500
Restaurants,Basso KBH,12.5865768,55.6838798
Restaurants,Restaurant 1733,12.5763083,55.6764748
Restaurants,Hanzo,12.5771735,55.7040289
Restaurants,Baka d'Busk,12.5477960,55.6872816
Restaurants,Cafe Ravnsborg,12.5610146,55.6879431
Restaurants,Maui,12.5622147,55.6885903
Restaurants,The Taj,12.5980315,55.6671907
Restaurants,Restaurant Lazio,12.5139760,55.6919840
Restaurants,Sukaiba,12.5783056,55.6395289
Restaurants,MØR Restaurant & Bar,12.5573055,55.6669001
Restaurants,Luca Pizzaria,12.5783464,55.6777061
Restaurants,Tramonto,12.5330623,55.6668040
Restaurants,WOK Christianshavn,12.5925263,55.6720329
Restaurants,The harbour,12.5636439,55.6630696
Restaurants,Hey Ida,12.5708356,55.6666851
Restaurants,Great China,12.5628926,55.6721055
Restaurants,Hot Pot Republic,12.5407277,55.6704466
Restaurants,Il Puro,12.5802691,55.7259700
Restaurants,John & Woo,12.5978310,55.7067790
Restaurants,Wokshop,12.5772079,55.7002445
Restaurants,Ristorante Nuova Italia,12.4520380,55.6815200
Restaurants,Watami,12.5118841,55.6660798
Restaurants,OISHI Sushi,12.5545508,55.6493182
Restaurants,Alchemist,12.6139060,55.6938310
Restaurants,Falang,12.5563878,55.6702083
Restaurants,The Modern,12.5926011,55.6814860
Restaurants,The Shrimp,12.5916864,55.6812303
Restaurants,Pizzeria e Birratheque La Carmela,12.5175690,55.6662460
Restaurants,Karma Sushi Nyhavn,12.5925569,55.6797919
Restaurants,Nepali Bhancha,12.5501532,55.6823199
Restaurants,Nordea Ørestaden Fine Dining,12.5915818,55.6555232
Restaurants,Hooked,12.5550218,55.6900527
Restaurants,Folk,12.5227138,55.6717984
Restaurants,Restaurant Babylon,12.5592221,55.6818679
Restaurants,Allé Kroen,12.6476265,55.6363595
Restaurants,Restaurant MA,12.5797910,55.6817850
Restaurants,Maison,12.5836960,55.6844446
Restaurants,Wakha Wakha,12.5651668,55.6744794
Restaurants,Restaurant Cyprus,12.5760643,55.6308694
Restaurants,PanPan,12.5215133,55.6736440
Restaurants,And Kebab,12.5625553,55.6622827
Restaurants,Angelini,12.5645743,55.6737791
Restaurants,Yaffa,12.5754170,55.6796755
Restaurants,À terre,12.5874110,55.6786210
Restaurants,Wok Shop,12.5747080,55.7345000
Restaurants,Madklubben Østerbro,12.5771709,55.7039585
Restaurants,Dream Sushi,12.5542541,55.6670753
Restaurants,Granen,12.4945664,55.6769008
Restaurants,Norrlyst,12.5762576,55.6775891
Restaurants,Grosen & Falkenbergs,12.5996303,55.6782978
Restaurants,Spazio 26,12.5825910,55.6817750
Restaurants,Restaurant Safari,12.5599782,55.6868108
Restaurants,Restaurant Kongen,12.5489198,55.6748471
Restaurants,Restaurant Polly,12.5463859,55.6754224
Restaurants,Frankies Pizza Frederiksberg,12.5327890,55.6750140
Restaurants,John&Woo,12.5983684,55.6655167
Restaurants,Lola,12.5961260,55.6714360
Restaurants,Lucifer,12.5874396,55.6842087
Restaurants,Restaurant Capa,12.5702485,55.6762332
Restaurants,Kanagawa,12.5475635,55.6719062
Restaurants,Nozomi,12.5874458,55.6837909
Restaurants,Sult,12.5782361,55.6827638
Restaurants,JabbyS,12.5682789,55.6780113
Restaurants,Lamfuz,12.5744350,55.7056099
Restaurants,Carls Øl & Spisehus,12.5335850,55.6673260
Restaurants,Bulko,12.5395320,55.6665670
Restaurants,Las americas,12.5806061,55.6789726
Restaurants,Everest Curry,12.5792116,55.6677745
Restaurants,Turan,12.4390920,55.6715310
Restaurants,Mosob,12.5550878,55.6886848
Restaurants,Garam Masala,12.4855646,55.6923425
Restaurants,Nibon Ya Sushi,12.5601926,55.6730829
Restaurants,Retour Vesterbro,12.5605647,55.6739197
Restaurants,PickEatUp,12.5347796,55.6521569
Restaurants,Konstrast,12.5672660,55.6712185
Restaurants,Frankies,12.5728654,55.6781339
Restaurants,Urban Indian,12.5667418,55.6773734
Restaurants,Færgekroen,12.5698159,55.6741317
Restaurants,Hind,12.5686768,55.7129214
Restaurants,Jagger,12.5176560,55.6665230
Restaurants,Brasserie Murdoch's Books & Ale,12.5888432,55.6829847
Restaurants,Barabba,12.5864106,55.6825697
Restaurants,Rangoli,12.5881385,55.6845705
Restaurants,Frokostrestauranten 1971,12.5478330,55.6789480
Restaurants,Restaurant Carl Nielsen,12.5915280,55.6800720
Restaurants,Restaurant Erbil,12.5490665,55.7085828
Restaurants,Ye Sushi,12.6351022,55.6382902
Restaurants,Neighborhood,12.5424684,55.6939222
Restaurants,Eat in Time,12.5167990,55.6665320
Restaurants,Bjørns,12.5530590,55.6727260
Restaurants,BBC Restaurant,12.6048140,55.6278580
Restaurants,Skovshoved Hotel Morgenmadsrestaurant,12.5968879,55.7589522
Restaurants,Le Lac,12.5816250,55.6968160
Restaurants,Rose Rose,12.5753407,55.7373796
Restaurants,Accanto Copenhagen,12.5742806,55.6828028
Restaurants,Ciao Italian Quality Food,12.5460591,55.6713138
Restaurants,Hija de Sanchez Cantina,12.5970153,55.7078534
Restaurants,Restaurant Palægade,12.5864119,55.6823022
Restaurants,Møntergade Smørrebrød og Brasseri,12.5798740,55.6822070
Restaurants,Fasangården,12.5212940,55.6750470
Restaurants,Wallmans,12.5651134,55.6759302
Restaurants,Kōnā,12.5321593,55.6678674
Restaurants,Brasserie Saigon,12.5549850,55.6725280
Restaurants,Hong Kong,12.5884539,55.6806738
Restaurants,Salon 39 Vinbar,12.5544100,55.6780450
Restaurants,Makoto,12.5097770,55.6943678
Restaurants,Restaurant Fabio,12.5368700,55.6835410
Restaurants,Vanløse Bistro,12.4893128,55.6895028
Restaurants,Superbello,12.4894106,55.6880045
Restaurants,El Tapeo de Cervantes,12.5556820,55.6727950
Restaurants,Captain H,12.5736880,55.6973190
Restaurants,Comwell Copenhagen Portside,12.5937576,55.7126955
Restaurants,Silberbauers Bistro,12.5434247,55.6932511
Restaurants,Nan Yuan,12.5400231,55.6848825
Restaurants,The Fat Greek,12.5672721,55.6921390
Restaurants,Darling,12.5810400,55.6776930
Restaurants,Kampot,12.5943989,55.7074985
Restaurants,Øens Have,12.6121234,55.6910561
Restaurants,Spisestedet Jagten,12.4958722,55.6255862
Restaurants,Fish Sushi,12.5863914,55.6036614
Restaurants,Komplet,12.5740229,55.6809565
Restaurants,Seating,12.6548788,55.6353354
Restaurants,Seaside Toldboden,12.5998371,55.6898946
Restaurants,Charm,12.5915873,55.6801626
Restaurants,Chawala,12.6141900,55.6600390
Restaurants,Pomodoro D'oro,12.6337695,55.6590358
Restaurants,Sushi Joint,12.6346796,55.6585259
Restaurants,Restaurant Sundby Sejl,12.6318053,55.6644204
Restaurants,Camino,12.5575678,55.6682173
Restaurants,Thai Corner,12.5576196,55.6706023
Restaurants,Projekt Raw,12.5998339,55.6900841
Restaurants,Spisehuset,12.5751538,55.6764251
Restaurants,Figaro,12.5672476,55.6734393
Restaurants,Mæxico Vesterbrogade,12.5534758,55.6726717
Restaurants,Sol & Luna,12.5315320,55.6810620
Restaurants,NH Collection Copenhagen,12.5887099,55.6735885
Restaurants,Shirzad Persisk Restaurant,12.5186154,55.6814834
Restaurants,Osteria Nana,12.5879994,55.6844400
Restaurants,Restaurant Replik,12.5950934,55.6799349
Restaurants,Le Jardin,12.5827732,55.6813494
Restaurants,Skagen Fiskerestaurant Esplanaden,12.5931364,55.6874375
Restaurants,Ristorante IL Rosmarino,12.5935523,55.6793470
Restaurants,Lille Norrlyst,12.5748380,55.6783280
Restaurants,JED,12.5647665,55.6907850
Restaurants,Bloom Vesterbro,12.5569539,55.6724570
Restaurants,Bobo Food Studio,12.5827290,55.6789239
Restaurants,Espehus Kro,12.4371373,55.6797644
Restaurants,Bocado,12.5820040,55.6800470
Restaurants,Puls Kitchen & Bar,12.5749114,55.6316349
Restaurants,Vinello,12.5671944,55.6920914
Restaurants,Plin,12.5915020,55.6813134
Restaurants,Det Glade Vanvid,12.5788740,55.6783270
Restaurants,Topical,12.5433073,55.6930162
Restaurants,Delphine,12.5557822,55.6725050
Restaurants,Görkem Efendi NV,12.5327525,55.7032940
Restaurants,Restaurant The Samuel,12.5683736,55.7324423
Restaurants,Koreansk B.B.Q.,12.5022718,55.6845961
Restaurants,Almanak i Operaen,12.6016220,55.6819231
Restaurants,TAVA,12.4578708,55.6802107
Restaurants,Glød,12.5833377,55.6832134
Restaurants,Skjoldgaarden,12.5856828,55.7555485
Restaurants,Damindra,12.5742600,55.6762609
Restaurants,Proud sushi,12.4859569,55.6840705
Restaurants,Feed Bistro,12.5664369,55.6749946
Restaurants,Bjørnekælderen,12.5374112,55.6740330
Restaurants,Buakow a thai take away,12.5259342,55.6970299
Restaurants,Panza,12.5693931,55.6950428
Restaurants,Spiseriet Teglholmen,12.5460454,55.6512651
Restaurants,The Flames,12.6165856,55.6555229
Restaurants,Thai Gourmet,12.5760910,55.6910915
Restaurants,Circolo,12.5517912,55.6742463
Restaurants,A Dresscode,12.5940935,55.7000499
Restaurants,La Tre to Go,12.5407780,55.7457106
Restaurants,New Mahalle CPH,12.5730990,55.6806860
Restaurants,Little House Restaurant,12.6204284,55.6671897
Restaurants,UMI Vanløse,12.4899268,55.6879656
Restaurants,Hooked Christianshavn,12.5893843,55.6732604
Restaurants,Jesper Gøtz,12.5765392,55.6830362
Restaurants,Kasai Sushi,12.6118561,55.6526953
Restaurants,Lago,12.5594840,55.6844860
Restaurants,Pulpo,12.6292426,55.6646497
Restaurants,PHO HA NOI,12.5622520,55.6751300
Restaurants,Maekhong,12.5728961,55.6958568
Restaurants,Restaurant Muma,12.5110096,55.7057775
Restaurants,Golden Palace Cph,12.6048373,55.6277996
Restaurants,Jatak,12.5478519,55.6870442
Restaurants,Mr Ramen,12.5647215,55.6766105
Restaurants,Mæxico City,12.5732073,55.6788415
Restaurants,Hotel Skt Petri Restaurant,12.5717288,55.6806951
Restaurants,Casamadre,12.5510939,55.7012459
Restaurants,Bar Pasta,12.5546282,55.6881393
Restaurants,The Market Italian,12.5815990,55.6803200
Restaurants,Takuya restaurant,12.5635698,55.6722146
Restaurants,Thaipan,12.5593416,55.6909676
Restaurants,P & P Restaurant,12.5731104,55.7130804
Restaurants,Dehra Restaurant,12.4833980,55.6616634
Restaurants,Madklubben Frederiksberg,12.5319860,55.6810539
Restaurants,Dorado,12.5997619,55.6901358
Restaurants,Danhostel Copenhagen City Morgenmadsbuffet,12.5765664,55.6710017
Restaurants,Madklubben Vesterbro,12.5529918,55.6727157
Restaurants,Patagonia Grill,12.5998689,55.6900476
Restaurants,Dang Dang Asian Flavours,12.5998659,55.6900822
Restaurants,Solveig,12.5997773,55.6901128
Restaurants,Levi,12.5822735,55.6818155
Restaurants,Co-Ma Madsalen,12.5730900,55.6760190
Restaurants,Theo,12.5743883,55.6793247
Restaurants,Lees Kitchen,12.5557040,55.6831555
Restaurants,Kristinedal Burgers,12.5683259,55.6780951
Restaurants,Brasserie Prins,12.5533321,55.6736242
Restaurants,Kanagawa Sushi,12.5874645,55.7036591
Restaurants,Restaurant Mark,12.5643700,55.6754714
Restaurants,Alexanders bistro,12.5315743,55.6672661
Restaurants,Svovl,12.5795020,55.7059768
Restaurants,hubb kitchens,12.5725320,55.6841983
Restaurants,Aroii,12.5571412,55.6919155
Restaurants,The MidWestern Diner,12.5735729,55.6826026
Restaurants,Bistro RK,12.5469588,55.6957396
Restaurants,Villanelle,12.5738960,55.6897719
Restaurants,Koreansk BBQ,12.5968605,55.7075182
Restaurants,Injera,12.5337581,55.7022283
Restaurants,Ramen 88,12.6226718,55.6643083
Restaurants,Next EATERY,12.5709855,55.6695864
Restaurants,Pilekælderen,12.5795107,55.6811859
Restaurants,Bistro Verde,12.5921761,55.6811201
Restaurants,Studio,12.5310338,55.6668506
Restaurants,Souls Eatery,12.5359743,55.6672429
Restaurants,Sholay Indian Cuisine,12.5495151,55.6522197
Restaurants,ISSEI Copenhagen,12.5638287,55.6747583
Restaurants,Slurp Ramen Residency at Kona,12.5322370,55.6678464
Restaurants,Franks Kro,12.5675736,55.6927267
Restaurants,Vital Foods,12.5789259,55.6805311
Restaurants,Saigon 45,12.4590299,55.6792858
Restaurants,WaSai Asian Restaurant,12.5571894,55.7191077
Restaurants,Pauli,12.5379050,55.6517111
Restaurants,Hanzo Frederiksberg,12.5276890,55.6832710
Restaurants,Mamak,12.5243186,55.6841075
Restaurants,Kolumbia,12.5924185,55.6716883
Restaurants,Katsura Herlev,12.4385720,55.7252150
Restaurants,Kaburgaci Tahsin Usta,12.4742426,55.7115709
Restaurants,Kappo Andō,12.5793606,55.6953569
Restaurants,Aroiidee,12.5572129,55.6918749
Restaurants,Kiyosaki Frederiksberg,12.5374583,55.6845305
Restaurants,Zen Dimsum & Sushi,12.5317898,55.6787464
Restaurants,Taigoo,12.5345698,55.6815545
Restaurants,Restaurant Ansvar,12.5737212,55.6695244
Restaurants,Restaurant Nordbo,12.5737856,55.6695724
Restaurants,Bombay bistro,12.5724902,55.6812988
Restaurants,Beaucoup Fish,12.5469695,55.6675856
Restaurants,Kokkefars Køkken,12.5171160,55.7329812
Restaurants,Maupa,12.5868902,55.6831423
Restaurants,Restaurant Le Gourmand,12.5693851,55.6791811
Restaurants,Saji,12.5698571,55.6788080
Restaurants,Level six Restaurant,12.5717122,55.6837980
Restaurants,Lundgren VIP 2 Vin & Tapas,12.5777549,55.6833541
Restaurants,Dhaba,12.5663591,55.6760760
Restaurants,Lun,12.5606540,55.6728689
Restaurants,Goldie,12.5544934,55.6883690
Restaurants,Zio & Nonna,12.5910248,55.6961180
Restaurants,Ripotot,12.5872090,55.6834822
Restaurants,JuJu,12.5750047,55.6898535
Restaurants,Mela,12.5045003,55.6558432
Restaurants,Restaurant Chili,12.5746729,55.6760980
Restaurants,La Place,12.5650607,55.6727327
Restaurants,Sensu Sushi,12.5689088,55.6178115
Restaurants,Nachos,12.5778403,55.6304622
Restaurants,Hummerkompagniet,12.6302676,55.6616483
Restaurants,No. 27,12.6302462,55.6618512
Restaurants,Mahalle Amager,12.6294530,55.6617772
Restaurants,Grand Joanne,12.5624527,55.6735920
Restaurants,Resto Bar,12.5550178,55.6718061
Restaurants,Lamar,12.5554531,55.6735056
Restaurants,La Bodega,12.5546860,55.6721603
Restaurants,Sazio Restaurant & Vin Bar,12.5580744,55.6694360
Restaurants,Gemini,12.5583880,55.6745307
Restaurants,Al Dente,12.5997633,55.6901841
Restaurants,Gorms Nyhavn 14,12.5899481,55.6796707
Restaurants,Janice,12.5434580,55.6712092
Restaurants,Midori sushi,12.5444509,55.6714019
Restaurants,Haidan,12.5943637,55.7074316
Restaurants,Piola Pastificio,12.5482890,55.6804002
Restaurants,UMI Valby,12.5126588,55.6612346
Restaurants,Chimi,12.6097258,55.6588360
Restaurants,Olea Kitchen & Bar,12.4351509,55.6761862
Restaurants,Morgenmads Restaurant,12.6526130,55.6305734
Restaurants,Restaurant China,12.5745640,55.6818552
Restaurants,Restaurant Odette,12.5754492,55.6772045
Restaurants,Bistro Gustav,12.5683641,55.6793479
Restaurants,Magstræde 16 og 18,12.5751126,55.6763328
Restaurants,Cleo,12.5464592,55.6877976
Restaurants,KOBA Koreansk Barbeque,12.6145028,55.6464895
Restaurants,Indian Swaad,12.5723540,55.6823913
Restaurants,Lunden,12.5368145,55.6936897
Restaurants,Mexihagen,12.6034945,55.6633544
Restaurants,Madklubben,12.6037139,55.6635229
Restaurants,Restaurant Kastrup Strandpark,12.65229267222222222222222222,55.64064980555555555555555556
Restaurants,Orangeriet,12.58211935555555555555555556,55.68460415555555555555555556
Restaurants,Mazzolis,12.56820560434782608695652174,55.67448495652173913043478261
Restaurants,Mash Skovriderkroen,12.58680461923076923076923077,55.74935301923076923076923077
Restaurants,Restaurant 56 grader,12.6103327,55.68425728
Restaurants,Restaurant Kanalen,12.5931137,55.67557524
Restaurants,Restaurant Kastrupfortet,12.64021228,55.6486416
Restaurants,Charlottenlund Fort,12.58777637142857142857142857,55.74545474285714285714285714
Restaurants,Sticks n Sushi,12.63265106,55.66061888
Restaurants,Restaurant Krudtuglen,12.46676528,55.7136816
Restaurants,Grøften,12.56684569166666666666666667,55.67433089166666666666666667
Restaurants,DSR Kantine,12.58610855,55.7147670
Restaurants,Carl's Old Inn,12.46286328,55.6914642
Restaurants,Olivers Garage,12.5994511,55.76324647142857142857142857
Bus Stations,Friheden St.,12.4826907,55.6287324
Bus Stations,n/a,12.5429007,55.7453596
Bus Stations,Flintholm St.,12.4986859,55.6859951
Bus Stations,Buddinge St.,12.4943113,55.7467772
Bus Stations,Port Copenhague,12.5958280,55.7014409
Bus Stations,Flixbus,12.5654374,55.6700329
Bus Stations,Nøragersmindevej,12.58163447,55.5914446
Hospitals,n/a,12.6215270,55.6561274
Hospitals,Børneneurologisk Behandlingsklinik,12.5658320,55.7156153
Hospitals,Privathospitalet Danmark,12.5717780,55.7536114
Hospitals,Psykiatrisk akutmodtagelse,12.5217996,55.6858367
Hospitals,Psykiatrisk Center Frederiksberg,12.5209950,55.6861512
Hospitals,Akutklinik,12.5257885,55.6872847
Hospitals,Blod Bank,12.5460507,55.7383383
Hospitals,Børne- og Ungdomspsykiatrisk Center,12.5434342,55.7158717
Hospitals,Amager Hospital - Italiensvej,12.62034851,55.65509039
Hospitals,Diakonisse-stiftelsen,12.51808739285714285714285714,55.67842625
Hospitals,Gentofte Hospital,12.54680505217391304347826087,55.7384367
Hospitals,Bispebjerg Hospital,12.54081872,55.714623285
Hospitals,Hvidovre Hospital,12.46602502222222222222222222,55.64899323333333333333333333
Hospitals,Steno Diabetes Center Copenhagen,12.52641321428571428571428571,55.75577249285714285714285714
Hospitals,Rigshospitalet,12.56484704285714285714285714,55.69752517142857142857142857
Hospitals,Psykiatrisk Center Glostrup (afdeling Hvidovre),12.44133486,55.64918801
Hospitals,Psykiatrisk Center Amager,12.58598378907849829351535836,55.64332622252559726962457338
Hospitals,Amager Hospital - Hans Bogbinders Allé,12.60833514444444444444444444,55.65450875555555555555555556
Hospitals,Herlev Hospital,12.44206964130434782608695652,55.73196666304347826086956522
Hospitals,Frederiksberg Hospital,12.52292147647058823529411765,55.68672727647058823529411765
