Type,Name,Latitude,Longitude
Malls,,55.6818036,12.531049
Malls,Frederiksberg centeret,55.682243,12.533355
Malls,Q-Park Illum,55.6797769,12.5795608
Malls,K,55.6789057,12.457137
Malls,P,55.6799249,12.4579915
Malls,Frihedens Butikscenter,55.626984875,12.484060033333332
Malls,Frederiksberg Centret,55.68172073703704,12.532238129629627
Malls,Rødovre Centrum,55.679388752,12.457133042
Malls,Fisketorvet,55.6618385372093,12.561215186046512
Malls,Field's,55.630461023529406,12.577648805882353
Malls,Nørrebro Bycenter,55.70324353207547,12.538120596226417
Malls,Hvidovrevejs Butikstorv,55.65329371,12.4740983
Malls,Hvidovre C,55.66354322142857,12.475971210714285
Malls,Rebæk Søpark Butikscenter,55.6635152,12.45805314
Malls,Waterfront Shopping,55.7258382,12.57936284
Malls,Høje Gladsaxe Center,55.72994414,12.497336
Malls,Bangs Torv,55.722691,12.438989878260868
Malls,Spinderiet,55.66478501162791,12.511369176744186
Malls,Amager Centret,55.663206452,12.604195236
Malls,BIG Shopping,55.71844340625,12.44850770625
Malls,Kronen Vanløse,55.687693177551026,12.492406124489795
Malls,Illum,55.67946005454546,12.58036978181818
Malls,Tårnby Torv,55.63061632,12.60082524
Malls,Herlev Bymidte,55.723651034782606,12.439457724782608
Schools,,55.6337732,12.6255513
Schools,Instituttet for Blinde og Svagsynede - IBOS,55.7267963,12.5634854
Schools,Fritidshjemmet Ærtebjerg,55.6350689,12.4628603
Schools,Skolen på Nyelandsvej,55.6828139,12.5303254
Schools,Trekronergade Freinetskole,55.6572129,12.5197857
Schools,Skolen ved Milestedet,55.6700978,12.4506967
Schools,Niels Brock,55.6825046,12.5745879
Schools,Flyvevåbnets Officersskole,55.7174668,12.5730322
Schools,Krebs' Skole,55.6898694,12.5757128
Schools,Christianshavn Døttreskole,55.6733005,12.5939114
Schools,Frederiksberg HF-kursus,55.6799579,12.4985739
Schools,Gefion Gymnasium,55.6882961,12.5813831
Schools,Prins Henriks Skole,55.6739171,12.5496938
Schools,Fabrikken,55.6227549,12.6141227
Schools,Københavns Idrætsefterskole,55.6479492,12.511282
Schools,Professionsskolen UCC,55.7043636,12.553385
Schools,Sprogcenter Hellerup,55.7274179,12.5566685
Schools,Sprogcenter Hellerup - Tuborg campus,55.7267087,12.5788001
Schools,Frederiksberg Slot - Hærens Officersskole,55.6718932,12.5251621
Schools,High school,55.675286,12.5735394
Schools,Sosu C,55.6509471,12.4188799
Schools,Engskolen,55.6683,12.54556
Schools,Filipskolen,55.6595148,12.6334808
Schools,Skandinavisk Yoga og Meditationsskole,55.68187,12.57448
Schools,Amager International School,55.6481094,12.6349351
Schools,Atheneskolen,55.7378603,12.4833149
Schools,Borgens Køreskole,55.7306777,12.5206198
Schools,Studieskolen,55.6826836,12.5845717
Schools,Johan Borups Højskole,55.6738033,12.577434
Schools,Improv Comedy Copenhagen,55.675997,12.574759
Schools,Københavns Madhus,55.6675422,12.5632535
Schools,Frederiksberg Seminarium,55.683099,12.529317
Schools,Søværnets Officersskole,55.7173559,12.5715928
Schools,Forsvarsakademiet,55.7176443,12.5731891
Schools,Goethe Institut,55.6827557,12.573185
Schools,Institut Sankt Joseph,55.6941452,12.582244
Schools,Teater butikken,55.6681532,12.5628584
Schools,CPH Cooking Class,55.6791516,12.5897706
Schools,Sunrise International Preschool,55.7258519,12.5702192
Schools,SingularityU Nordic,55.7043392,12.5534944
Schools,Hvidovre Musikskole,55.6489521,12.4761544
Schools,Skolen på Strandboulevarden,55.7023037,12.5880004
Schools,FGU Hovedstaden - Valby,55.658389,12.504044
Schools,Københavns Professionshøjskole,55.6640976,12.5372896
Schools,JUC SERVICE,55.674949,12.564657
Schools,Den Grønne Friskole,55.6644583,12.6213089
Schools,Langelinieskolen Holsteinsgade,55.6995722,12.5865382
Schools,Fensmarkskolen,55.6958778,12.552122
Schools,Det frie Gymnasium,55.6891376,12.5454588
Schools,Østerbro Lilleskole,55.7108408,12.5801014
Schools,Terrible,55.6784806,12.5404065
Schools,TEC Frederiksberg,55.6828992,12.5190374
Schools,European School Copenhagen,55.66691,12.5338545
Schools,NEXT,55.7184481,12.5405445
Schools,Afdeling hvidovre FGU Vestegnen,55.6324046,12.4494932
Schools,FGU Hovedstaden - Østerbro Køkken og Klima,55.6905392,12.5756591
Schools,FGU Gastro,55.694471,12.5440289
Schools,Kastrupgårdsskolen,55.633192316666666,12.627822066666665
Schools,Korsvejens Skole,55.63449102222222,12.618512888888889
Schools,Skottegårdsskolen,55.63742132,12.63756468
Schools,Kirsebærhavens Skole,55.64852703846154,12.503162123076924
Schools,Nørre Fælled Skole,55.70506662,12.5584738
Schools,Risbjergskolen,55.64101735,12.48814745
Schools,Skolen på Duevej,55.69105187,12.52768127
Schools,Lindevangsskolen,55.6803374,12.50879606
Schools,Ingrid Jespersens Gymnasieskole,55.700516475,12.57844325
Schools,Dansborgskolen,55.6305484375,12.483987575
Schools,HF & VUC København Syd,55.640920216666665,12.500389166666666
Schools,Strandparkskolen,55.64504374444445,12.530224122222222
Schools,Grønnemose Skole,55.72812883877551,12.497198087755102
Schools,Tinderhøj Skole,55.69526544,12.45027441
Schools,Ellebjerg Skole,55.65055549,12.53232154
Schools,Esajasskolen,55.65057626,12.479667606666666
Schools,Enghavegård Skole,55.72449974,12.47675388
Schools,Korsager Skolen,55.70909353571429,12.469925992857142
Schools,Skolen på La Cours Vej,55.6850619375,12.518279975
Schools,Vadgård Skole,55.75122728,12.48761028
Schools,Gladsaxe Gymnasium,55.74218092727273,12.491444672727273
Schools,Kvikmarkens Privatskole,55.747259625,12.4887923375
Schools,Nørregård,55.66400883333333,12.428717783333331
Schools,Elverhøjens Skole,55.726765115384616,12.44675206153846
Schools,Nørrebro Park Skole,55.68995653529412,12.545161664705882
Schools,Nyager Skole,55.68862266666667,12.447540077777775
Schools,Sønderkærskolen,55.64903054,12.47626736
Schools,Hvidovre Gymnasium & HF,55.62867338333333,12.452723666666666
Schools,Store Magleby Skole,55.595200872727276,12.637672127272728
Schools,Løjtegårdsskolen,55.62373585882353,12.619569905882353
Schools,Nordregårdsskolen,55.6376384,12.60099632
Schools,Tårnby Gymnasium,55.63809552,12.60437808
Schools,Brøndbyøster Skole,55.66139418,12.44754758
Schools,Gasværksvejens Skole,55.66993057391304,12.55707052173913
Schools,Heerup Skole,55.69242596363636,12.509173109090908
Schools,Rødkilde Skole,55.697162866666666,12.5076013
Schools,Bakkegårdsskolen,55.74689482941176,12.525695364705882
Schools,Karinedals Skole,55.69079313571429,12.497407035714284
Schools,Tre Falke Skolen,55.68005848888889,12.497784544444444
Schools,Blaagaards Seminarium,55.723062041666665,12.476918383333333
Schools,Brønshøj Gamle Skole,55.70342296,12.49816378
Schools,Utterslev Skole,55.711240272727274,12.519486909090908
Schools,Ørestad Skole,55.63110666923077,12.58146000576923
Schools,Sundbyøster Skole,55.651665884,12.61411086
Schools,Amager Lille Skole,55.65143061,12.61717995
Schools,Skelgårdsskolen,55.60516316216216,12.587284805405403
Schools,Københavns Åbne Gymnasium,55.65503785,12.524063725
Schools,Kofoeds Skole,55.66688626470588,12.617730058823527
Schools,Hanssted Skole,55.66588843333333,12.486713691666665
Schools,Ålholm Skole,55.67009925714286,12.494983714285715
Schools,Falkonergården Gymnasium og HF-Kursus,55.68130017142857,12.495283092857141
Schools,Søndermarkskolen,55.67440221,12.50262728
Schools,Lykkebo Skole,55.660112614285715,12.484783992857142
Schools,Damhusengens Skole,55.68615804666666,12.4803005
Schools,Vanløse Privatskole,55.68222338,12.48771544
Schools,Randersgades Skole,55.705794222222224,12.580883422222222
Schools,Billedskolen i Tvillingehallen,55.66827755641025,12.563367528205127
Schools,Blågårds Skole,55.68769427692308,12.550579176923076
Schools,Peder Lykke Skolen,55.65539968852459,12.598216249180329
Schools,Avedøre Skole,55.63228931333333,12.455894426666665
Schools,Øster Farimagsgade Skole,55.69259543571429,12.577864385714284
Schools,Heibergskolen,55.70298123076923,12.581848176923076
Schools,Den Classenske Legatskole,55.67288032,12.57577244
Schools,St. Petri Skole,55.679702222222225,12.569464672222223
Schools,DIA Privatskole,55.6902782,12.56164585
Schools,Lycée Français Prins Henrik,55.67406468235294,12.548343535294116
Schools,Frejaskolen,55.665045513333325,12.515462753333331
Schools,Valhøj Skole,55.67682901538462,12.450605138461539
Schools,Frederiksgård Skole,55.69663056666666,12.538928353333333
Schools,Freinetskolen,55.665914928,12.506205048
Schools,Skolen på Grundtvigsvej,55.67815352272727,12.539326159090908
Schools,Brønshøj Skole,55.703649985714286,12.495094557142856
Schools,Gladsaxe Skole,55.74514923,12.469665555
Schools,Gladsaxe Ungdomsskole,55.73543897692308,12.48561003076923
Schools,Buddinge Skole,55.74095523,12.504032465
Schools,Grønnemoseskolen,55.7314895,12.499775833333333
Schools,UCN 10. klasseskolen,55.66907067272727,12.4421288
Schools,Bjørns Internationale Skole,55.72173406666666,12.5586849
Schools,Ryparken Lille Skole,55.72150338,12.5582397
Schools,Gungehusskolen,55.6430718,12.468204971428571
Schools,Aurehøj Gymnasium,55.74574204,12.54528437
Schools,Rygaards Skole,55.73049784583333,12.55661505
Schools,Øregård Gymnasium,55.7381057090909,12.567199927272728
Schools,Tranegårdskolen,55.73908257,12.56714103
Schools,Tove Ditlevsens Skole,55.66626131818182,12.545161627272728
Schools,Skolen i Sydhavnen,55.6507088,12.5532061
Schools,Skovgårdsskolen,55.766078671428566,12.57051025
Schools,Frederiksberg Privatskole,55.67641639473684,12.458912136842104
Schools,Skolen på Islands Brygge,55.662267369841274,12.582740847619048
Schools,Valby Skole,55.66483268333333,12.508294138888887
Schools,Vigerslev Allés Skole,55.6623453,12.507604614285714
Schools,Sortedamskolens skolegård,55.69757454285713,12.577367614285714
Schools,Sortedamskolen indskolingshuset,55.69705734,12.57387178
Schools,Kirkebjerg Skole,55.69557326363636,12.483661563636364
Schools,Vidar Skolen,55.7537178125,12.531480325
Schools,Sankt Annæ Gymnasium,55.6564582875,12.5242219375
Schools,AHI International School,55.6877088875,12.487062925
Schools,"Glostrup Skole, afd. Skovvang",55.6839594,12.41424736
Schools,Amager Privatskole,55.62515708,12.59968028
Schools,Engstrandskolen,55.626318771428565,12.480261485714284
Schools,Holbergskolen,55.724310327272725,12.52982468181818
Schools,Præstemoseskolen,55.65460776,12.465986346666666
Schools,Holmegårdsskolen,55.66163806470588,12.47073878235294
Schools,Skolen Ved Sundet,55.65276960833333,12.62800905
Schools,Bellahøj Skole,55.703968941666666,12.509382983333332
Schools,Tingbjerg Skole,55.71865302857143,12.485410314285714
Schools,Nørre Gymnasium,55.71828225,12.47134033
Schools,Hendriksholm Skole,55.66905105714286,12.457438478571428
Schools,Naturcenter Amager Strand,55.66320233,12.6378805
Schools,Højdevangens Skole,55.64656758,12.60384102
Schools,Kalvebod Fælled Skole,55.62388293333333,12.570174146666666
Schools,International School of Hellerup,55.72247783076923,12.56039643076923
Schools,SOSU H,55.66752840769231,12.55706806153846
Schools,Kildevældsskolen,55.71565806428571,12.569709221428573
Schools,Amager Fælled Skole,55.66215293333333,12.594657155555556
Schools,Gerbrandskolen,55.647696935714286,12.616443707142857
Schools,Oehlenschlægersgades Skole,55.6674667625,12.550770833333331
Schools,NEXT Uddannelse København,55.703422972727274,12.534653172727271
Schools,Maglegårdsskolen,55.74351412941176,12.569542511764704
Schools,Tårnbygårdsskolen,55.619052383333326,12.6052581
Schools,Copenhagen International School,55.71194296976744,12.598575525581396
Schools,Langhøjskolen,55.620742914285714,12.489179957142856
Schools,Carolineskolen,55.72237394285714,12.576566157142857
Schools,Dyssegårdsskolen,55.732751683333326,12.5393019
Schools,Kildegård Privatskole,55.73710380833333,12.541973325
Schools,Søborg Skole,55.734212442857135,12.51172225
Schools,Gentofte Skole,55.74290716,12.547348833333333
Schools,HF-Centret Efterslægten,55.709424411111115,12.513373133333332
Schools,Uddannelsescenter UiU,55.711384853846155,12.513207169230768
Schools,Gammel Hellerup Gymnasium,55.73065275555556,12.572293277777776
Schools,Munkegårdsskolen,55.7354222,12.522401333333333
Schools,Skovmoseskolen,55.67949054444445,12.443312838888888
Schools,Bordings Friskole,55.69417701538462,12.57662133076923
Schools,Københavns Erhvervsakademi,55.70379713,12.537158105
Schools,Rådmandsgade Skole,55.69906006190476,12.550313085714285
Schools,Grøndalsvængets Skole,55.69832608333333,12.526367883333332
Schools,Det Kongelige Vajsenhus,55.68410006,12.5665466
Schools,Ordrup Gymnasium,55.76000557692308,12.575781
Schools,Skolen ved Bülowsvej,55.6821826,12.546053523809524
Schools,Kastanievej Efterskole,55.678149478571434,12.542984485714284
Schools,Tjørnegårdsskolen,55.75513628,12.5306697
Schools,Vesterbro Ny Skole,55.66571171052632,12.540393368421052
Schools,Pilegårdsskolen,55.62063877857143,12.594858328571428
Schools,Tagensbo Skole,55.70946015,12.53404756
Schools,Skolen ved Nordens Plads,55.67007085555556,12.503198277777775
Schools,Christianshavns Skole - filialen,55.672547011111114,12.595606666666667
Schools,Frederiksberg Friskole,55.6775696,12.519902535294117
Schools,Sølvgades Skole,55.68648532333333,12.583199006666666
Schools,Sankt Annæ Skole,55.65383188571429,12.607687057142856
Schools,Strandvejsskolen,55.7117768125,12.579171575
Schools,Skovshoved Skole,55.7614576,12.594348021052632
Schools,Brøndby Idrætsefterskole,55.65149704615385,12.41641396153846
Schools,Johannesskolen,55.67459871111111,12.501517455555556
Schools,Byens Skole,55.6582065,12.505942971428572
Schools,Husum Skole,55.70556205,12.473552866666665
Schools,Vibenshus Skole,55.70876697142857,12.579039971428571
Schools,Mørkhøj Skole,55.72367173714286,12.468560494285715
Schools,Niels Steensens Gymnasium,55.707945008695646,12.566551117391304
Schools,Danmarks Medie- og Journalisthøjskole,55.723117841176474,12.541789317647059
Schools,Skolen i Peter Vedels Gade,55.665830808333325,12.593276158333332
Schools,Sluseholmen Skole,55.65547401818181,12.554929872727271
Schools,Bavnehøj Skole,55.65737131578947,12.535785263157894
Schools,Lundehusskolen,55.71802543636364,12.54559049090909
Restaurants,Nørrebro Bryghus Restaurant,55.6902172,12.5639074
Restaurants,Ingolfs Kaffebar,55.6501334,12.6119742
Restaurants,Rio Bravo,55.6742501,12.5730625
Restaurants,Sticks'n'Sushi,55.6697106,12.5547131
Restaurants,Viet Nam Nam,55.6856353,12.5376527
Restaurants,Kafe Kapers,55.7050842,12.5768017
Restaurants,Wagamama,55.6722759,12.5690757
Restaurants,Il Ponte,55.6765807,12.5718891
Restaurants,Wining & Dining,55.6797762,12.5754143
Restaurants,Ristorante Amalfi,55.679433,12.575349
Restaurants,Peder Oxe,55.6796537,12.5759776
Restaurants,Bøf & Ost,55.6795485,12.575953
Restaurants,Cafe Victor,55.6807127,12.5832761
Restaurants,Madklubben Grill,55.6803781,12.5804521
Restaurants,La Vecchia Signora,55.6809107,12.5824969
Restaurants,L'Alsace,55.6807191,12.5828713
Restaurants,Mama Rosa,55.6790105,12.5805759
Restaurants,Jensen's Bøfhus Axeltorv,55.6763037,12.5644933
Restaurants,La Galette,55.6778757,12.5695321
Restaurants,L'education Nationale,55.678228,12.569743
Restaurants,Dubrovnik,55.6781715,12.5680739
Restaurants,Jensen's Bøfhus,55.6733149,12.5616617
Restaurants,Deep,55.666871,12.597726
Restaurants,Rimini,55.6681601,12.5971417
Restaurants,Krog's Fiskerestaurant,55.6777413,12.5785538
Restaurants,Ankara,55.6811269,12.5741096
Restaurants,Eros,55.6793725,12.5752015
Restaurants,Nova,55.6791314,12.573758
Restaurants,Shahi,55.6787069,12.5727364
Restaurants,Hong Cheng,55.7089635,12.5754032
Restaurants,Safir Kebab,55.690498,12.5441844
Restaurants,Els,55.6809684,12.5878215
Restaurants,Zeleste,55.6809061,12.5883161
Restaurants,Italiano,55.6792833,12.5738811
Restaurants,Wok On,55.6780529,12.5803408
Restaurants,Restaurant Jacobsen,55.6826871,12.5745415
Restaurants,Marv & Ben,55.6772838,12.5769463
Restaurants,Le Basilic,55.6719106,12.5562393
Restaurants,Apropos,55.6707876,12.5610473
Restaurants,Ban Gaw,55.6690839,12.5573535
Restaurants,Porn-Sak,55.6692654,12.5577022
Restaurants,Beijing,55.6770342,12.5703318
Restaurants,Flora's Steakhouse,55.6733045,12.5596734
Restaurants,La Fiesta Mexicana,55.6732568,12.5452292
Restaurants,Akropolis,55.6843632,12.5515978
Restaurants,Nyu Sakura,55.6841005,12.5514227
Restaurants,Radio,55.6819882,12.5543323
Restaurants,Nytorv,55.67721,12.5736687
Restaurants,Zafran,55.6873787,12.5595118
Restaurants,Salt,55.6820201,12.5941964
Restaurants,Café Le perr Valby,55.666523,12.5150828
Restaurants,Hotel Fy & Bi,55.6664428,12.5145524
Restaurants,Pintxos,55.6844442,12.5660522
Restaurants,Altopalato,55.7360678,12.5738669
Restaurants,Le Saint Jacques,55.7034223,12.5779306
Restaurants,Sushi Nørregade,55.6818262,12.5712029
Restaurants,Sticks'N'Sushi,55.6841991,12.5647608
Restaurants,Cafe Munk,55.6843897,12.5673006
Restaurants,Restaurant Koefoed,55.6829182,12.5854059
Restaurants,Cantina,55.6823201,12.5841755
Restaurants,Allegade 10,55.6760001,12.533217
Restaurants,Kreta III,55.6919588,12.4838727
Restaurants,Chaophraya,55.6931331,12.5071737
Restaurants,Sticks'N'Sushi Valby,55.6658044,12.513765
Restaurants,Kebabish,55.6731288,12.5604195
Restaurants,Den Lille Fede,55.6821848,12.5856599
Restaurants,Restaurant Vita,55.6826427,12.5860671
Restaurants,Hereford Steak,55.6827296,12.5865208
Restaurants,Royal Garden,55.6841125,12.5856999
Restaurants,El Viejo Mexico,55.6844872,12.5876301
Restaurants,,55.6407715,12.6522667
Restaurants,Bindia,55.6986522,12.5761933
Restaurants,Sliders,55.6871479,12.5621297
Restaurants,Vestauranten,55.6695947,12.5646074
Restaurants,Hebron,55.6726211,12.5607845
Restaurants,Godt,55.6822476,12.5827205
Restaurants,Chili's,55.6345603,12.5885828
Restaurants,Ny Zi Yang,55.7514077,12.5193213
Restaurants,Aristo,55.6692418,12.5791679
Restaurants,Temporada Tapasbodega,55.6844488,12.5541773
Restaurants,Tribeca NV,55.7062497,12.5343603
Restaurants,Ricemarket,55.6828339,12.5744665
Restaurants,Kreta,55.6934573,12.547615
Restaurants,Restaurant Klubben,55.6711195,12.5457687
Restaurants,Bjælkehuset,55.6670575,12.5253346
Restaurants,Hjem Sushi,55.6619369,12.5192664
Restaurants,SAS klubben,55.6333187,12.6384621
Restaurants,La Sirena,55.7535076,12.5711537
Restaurants,Romarin,55.6962411,12.5736203
Restaurants,Nimb Brasserie,55.6735634,12.5666399
Restaurants,Hard Rock Cafe,55.6766219,12.5690951
Restaurants,Famo 51,55.6742769,12.5503465
Restaurants,Famo,55.6723741,12.5506713
Restaurants,Kareten,55.6647417,12.599422
Restaurants,La Buca degli Artisti,55.6932938,12.5117591
Restaurants,Spiseloppen,55.6739921,12.5972675
Restaurants,Morgenstedet,55.6737546,12.6031876
Restaurants,Thai Lanna,55.7390862,12.5767233
Restaurants,Iki Sushi,55.7021553,12.5827876
Restaurants,Kiin Kiin,55.6918479,12.5573009
Restaurants,La Neta,55.6692157,12.5530946
Restaurants,Je t’aime,55.6653161,12.5576571
Restaurants,Mae Pen,55.6969787,12.5458449
Restaurants,Scarpetta,55.6854535,12.5522738
Restaurants,Ravelinen,55.6703637,12.5957099
Restaurants,Letz Sushi Christianshavn,55.6735371,12.591952
Restaurants,Asador,55.6723928,12.5900587
Restaurants,Cofoco,55.6718039,12.5583805
Restaurants,Les trois cochons,55.6737032,12.550029
Restaurants,Vespa,55.6857251,12.5890942
Restaurants,Tony's,55.6780986,12.5917974
Restaurants,Madklubben Bistro de luxe,55.684161,12.5877522
Restaurants,MASH Steakhouse Bredgade,55.6817859,12.5883393
Restaurants,Taormina,55.6985159,12.5811113
Restaurants,Ponte Vecchio,55.6656284,12.5754894
Restaurants,Hatoba,55.6684525,12.5792029
Restaurants,Sticks 'n' sushi,55.6905436,12.5755799
Restaurants,Restaurant Shezan,55.6709081,12.5585764
Restaurants,Domhusets Smørrebrød,55.6767843,12.5720495
Restaurants,Harbour Grill,55.680806,12.588025
Restaurants,Nyhavn 17,55.6805239,12.5891305
Restaurants,Told & snaps,55.6799914,12.5917501
Restaurants,La Sirène,55.67981,12.5918566
Restaurants,Café Petersborg,55.6873553,12.5929855
Restaurants,Bistro Boheme,55.6873169,12.5912553
Restaurants,Kokkeriet,55.6875403,12.5850836
Restaurants,A Hereford Beefstouw,55.6748243,12.5661037
Restaurants,Restaurant Grønnegade,55.6816089,12.5832999
Restaurants,Pastis,55.6825061,12.582179
Restaurants,Sole D Italia,55.6799188,12.5764619
Restaurants,Le Pavé,55.6797205,12.5754643
Restaurants,Giin Khao,55.6663991,12.5982718
Restaurants,Restaurant Viva,55.6703413,12.5803577
Restaurants,Susu Sushi,55.691122,12.556225
Restaurants,Letz Sushi,55.690407,12.559709
Restaurants,Restaurant Long Feng,55.6718729,12.5920754
Restaurants,Christianshavns Færgecafé,55.6754822,12.5924697
Restaurants,Mother,55.6685053,12.5576615
Restaurants,Cafe Lindevang,55.6792148,12.512732
Restaurants,Kate`s Joint,55.6869993,12.558727
Restaurants,Address,55.7259303,12.5864534
Restaurants,Kirin Sushi,55.6579458,12.4728798
Restaurants,Restaurant Lynetten,55.6891576,12.6185022
Restaurants,Oysters & Grill,55.6928738,12.551605
Restaurants,La Rocca,55.6847357,12.5661151
Restaurants,Höst,55.6832824,12.5661022
Restaurants,Yuan Hong,55.7131196,12.5738763
Restaurants,Spuntino,55.6727576,12.5521715
Restaurants,Restaurant Maven,55.678578,12.5815308
Restaurants,Magasasa,55.6723586,12.5630101
Restaurants,La Petanque,55.683478,12.567996
Restaurants,Søpromenaden,55.697735,12.578279
Restaurants,Aamanns Etablissement,55.6899665,12.5750967
Restaurants,Under Uret,55.6896143,12.5750925
Restaurants,Stue 11,55.6886663,12.5730861
Restaurants,Phønix,55.6823983,12.5736627
Restaurants,Sporvejen,55.679453,12.575676
Restaurants,Jensens Mad,55.628897,12.6232304
Restaurants,Nakorn Thai,55.6862276,12.5891791
Restaurants,Restaurant M,55.6834973,12.5871782
Restaurants,Rebel,55.6832778,12.5869911
Restaurants,The Red Box,55.6829652,12.586713
Restaurants,Trattoria Fiat,55.6813679,12.5858844
Restaurants,Lumskebugten,55.6883845,12.5980095
Restaurants,Den Kinesiske Mur,55.6455082,12.6149633
Restaurants,China Vietnam House,55.631949,12.4887589
Restaurants,Absolut Sushi,55.6321246,12.4890164
Restaurants,Barshu,55.6679838,12.5967108
Restaurants,Cafe Gl. Torv,55.6780117,12.5714461
Restaurants,Nyhavns Hereford House,55.6800695,12.5907903
Restaurants,Skindbuksen,55.6797421,12.5844793
Restaurants,Tivoli Hallen,55.6746192,12.5730884
Restaurants,Restaurant Puk,55.6761458,12.5739423
Restaurants,Galathea Kroen,55.6766459,12.5745289
Restaurants,Sakura,55.6821031,12.5801549
Restaurants,Det Lille Apotek,55.680325,12.5745687
Restaurants,Scurry Hub,55.6815692,12.5725665
Restaurants,San Giorgio's,55.6835622,12.5739764
Restaurants,Brdr. Price,55.6839789,12.5743876
Restaurants,Schønnemann,55.682815,12.576023
Restaurants,El Meson,55.682357,12.575696
Restaurants,Nyhavns Færgekro,55.6807141,12.5883495
Restaurants,Heering,55.680554,12.588985
Restaurants,Gallionen,55.6803658,12.5896193
Restaurants,Cap Horn,55.6804068,12.5895232
Restaurants,Venezia,55.6802483,12.590156
Restaurants,Nyhavn 37,55.680137,12.590546
Restaurants,Restaurant Havfruen,55.680111,12.590678
Restaurants,Ved Kajen,55.6800414,12.5909221
Restaurants,Sahil,55.676911,12.589387
Restaurants,Fuego,55.678063,12.589062
Restaurants,Gilleleje,55.679773,12.5895616
Restaurants,Tango & Vinos,55.6791271,12.5897144
Restaurants,Mêlée,55.6757981,12.5426451
Restaurants,Geranium,55.7037103,12.5720401
Restaurants,Zahida,55.6845789,12.5697732
Restaurants,Ristorante Garda,55.6684876,12.4879424
Restaurants,Kung Fu II Izakaya Bar,55.6889266,12.562565
Restaurants,Hos Fischer,55.7017253,12.5807559
Restaurants,Fuji Sushi,55.6709733,12.5314567
Restaurants,Hansens Gamle Familiehave,55.6726005,12.5313911
Restaurants,Krøgers Familiehave,55.6711876,12.5306595
Restaurants,M.G. Petersens Familiehave,55.6714583,12.530748
Restaurants,Grød,55.6936028,12.5428999
Restaurants,Bindia Elmegade,55.689591,12.5582548
Restaurants,Nha Trang,55.6874043,12.5467207
Restaurants,Kaleidoskop,55.6787358,12.5019986
Restaurants,Rasoi,55.6350236,12.5822757
Restaurants,Sushi One,55.7031203,12.5858523
Restaurants,Ranee's,55.686718,12.5572861
Restaurants,Pluto,55.6834694,12.5852555
Restaurants,Måltid,55.7159674,12.5314736
Restaurants,Tandoori Masala,55.688456,12.558808
Restaurants,Saigon,55.6520176,12.5024974
Restaurants,Scarpetta - Islands Brygge,55.6572827,12.5667896
Restaurants,Dag H.,55.6958392,12.5806623
Restaurants,Mielcke & Hurtigkarl,55.6747014,12.5309092
Restaurants,Kitchenette,55.6812097,12.5493551
Restaurants,Københavner Caféen,55.6781664,12.575025
Restaurants,Kronborg,55.6776072,12.5744986
Restaurants,Palæo Pilestræde,55.6806487,12.580557
Restaurants,Marchal,55.6804417,12.5847233
Restaurants,Kadeau København,55.6722547,12.5888555
Restaurants,Formel B,55.670698,12.5355288
Restaurants,AOC,55.6832803,12.5888493
Restaurants,Colombia Pizza & Restaurant,55.6705722,12.5421135
Restaurants,Restaurant Tårnet,55.6762303,12.5804107
Restaurants,Hellerup Sejlklub,55.731268,12.5809649
Restaurants,Enomania,55.6706559,12.5319708
Restaurants,Omakase,55.6703822,12.5353469
Restaurants,Sejlklubbernes Restaurant,55.7632334,12.6006081
Restaurants,Skovshoved Kro,55.7589166,12.5968422
Restaurants,Mesón España,55.6718168,12.5576346
Restaurants,Frederiks Have,55.6791194,12.5251614
Restaurants,Phoenix Running Sushi,55.7494174,12.5180707
Restaurants,Famo Metro,55.6957451,12.5795519
Restaurants,Sticks & Sushi Hotel Tivoli,55.66588,12.56596
Restaurants,Sankt Peder,55.730767,12.5757475
Restaurants,Sans Souci,55.6762611,12.5414017
Restaurants,Punjab,55.6664308,12.5204573
Restaurants,Kanal Caféen,55.6743994,12.5767875
Restaurants,Palæo Torvehal 1 Stade E1-F1,55.6838775,12.5691044
Restaurants,Teppan House,55.68485,12.50118
Restaurants,Senorita,55.6695262,12.5549211
Restaurants,Il Buco,55.6663582,12.5802158
Restaurants,China Garden,55.7340999,12.5150515
Restaurants,Bæst,55.692219,12.555909
Restaurants,Restaurant Strandlund,55.7439102,12.5838554
Restaurants,Takii,55.6965107,12.5510082
Restaurants,No. 2,55.6724145,12.5845011
Restaurants,Govinda,55.6827437,12.5563467
Restaurants,Fishmarket,55.6809171,12.5844498
Restaurants,McJoy's Choice,55.6799215,12.5913418
Restaurants,Trattoria Italiana,55.6800752,12.5764486
Restaurants,Cocks & Cows,55.6777981,12.5788252
Restaurants,Da Claudio,55.6869918,12.5320044
Restaurants,9-Ni Running Sushi,55.6714958,12.4582803
Restaurants,"Cafe og Ølhalle ""1892""",55.6849944,12.5702547
Restaurants,Uki Bento,55.6712966,12.5613942
Restaurants,Cock's & Cows SP34,55.6787142,12.5665053
Restaurants,Fu Wa,55.6885295,12.5419871
Restaurants,YaYa Sushi,55.705283,12.492002
Restaurants,Ahaaa Det Arabiske Madsted,55.6864878,12.5584645
Restaurants,KöD,55.6776029,12.5823423
Restaurants,Baan Thai Isarn,55.6706228,12.5602574
Restaurants,Le Diamant,55.6790273,12.580426
Restaurants,L'Anfora,55.6834866,12.577275
Restaurants,Restaurant Karla,55.6736846,12.5741057
Restaurants,L'Enoteca di Mr. Brunello,55.671218,12.574053
Restaurants,Roberta,55.6876013,12.5626665
Restaurants,Kinome,55.728068,12.576334
Restaurants,Husmanns Vinstue,55.6778099,12.570144
Restaurants,Indian Maharaja,55.7043566,12.5869692
Restaurants,Bone's Herlev,55.7185435,12.4503611
Restaurants,Restaurant Tokyo,55.6724308,12.549453
Restaurants,Kashmir,55.6989421,12.5874463
Restaurants,Riz Raz,55.6801828,12.5742858
Restaurants,Vesterbros Originale Burgerrestaurant,55.6708624,12.5584395
Restaurants,Kong Hans Kælder,55.6787557,12.5840367
Restaurants,Bistro Royal,55.6814081,12.5850751
Restaurants,Restaurant Ayuttaya,55.6859501,12.5528263
Restaurants,Ramen To Biíru,55.6878253,12.5540103
Restaurants,Ravage,55.6813283,12.5860369
Restaurants,Salt & Pepper,55.6449878,12.6368397
Restaurants,Jin Yuan Restaurant,55.6366751,12.6413905
Restaurants,The American Restaurant & Diner,55.6298278,12.5776373
Restaurants,Grillen Burger Bar,55.6715098,12.5913844
Restaurants,Susets Køkken,55.625523,12.49812
Restaurants,China Palace,55.6743178,12.5620654
Restaurants,Armandos Trattoria,55.7535121,12.5381927
Restaurants,Øresund,55.7641381,12.5966339
Restaurants,Il Gabbiano restaurant og café,55.7620735,12.5997478
Restaurants,Milano Restaurant,55.6302032,12.5780316
Restaurants,Grand B,55.7530188,12.5888386
Restaurants,Op La restaurant,55.7301435,12.5078164
Restaurants,Restaurant Mellemfortet,55.6377277,12.5426159
Restaurants,Sushi Lovers Ordrupvej,55.7624262,12.5760718
Restaurants,Ca',55.7323185,12.5642224
Restaurants,Pizzeria Barletta,55.7290289,12.5236922
Restaurants,Il Nuovo Rugantino,55.7401767,12.5031807
Restaurants,Sushi Familie,55.7642554,12.5799881
Restaurants,Scandic Restaurant,55.6682618,12.4194112
Restaurants,Restaurant Hong Yu,55.710073,12.466081
Restaurants,Esthers Spisehus,55.7327042,12.5655333
Restaurants,Restaurant HIK,55.7435749,12.5658126
Restaurants,Restaurant Yami Sushi,55.730727,12.576418
Restaurants,Zi Yang,55.697907,12.475024
Restaurants,Dong Fang,55.6576749,12.4729697
Restaurants,Cantinos,55.713946,12.535047
Restaurants,Punjabi,55.6511422,12.611926
Restaurants,Royal Cuisine,55.7082863,12.5578782
Restaurants,Duang Jai,55.7096519,12.5781178
Restaurants,New Japan,55.7011678,12.5801946
Restaurants,Restaurant Den Lykkelige Familie,55.655626,12.603993
Restaurants,Fresh Sushi,55.6638351,12.61804
Restaurants,Prismen Café - Øens Spisested,55.666636,12.610877
Restaurants,Ristorante Tio Mario's,55.6983219,12.5939267
Restaurants,Valby Idrætspark Restaurationen,55.6497895,12.5135938
Restaurants,Bindia Amagerbrogade,55.6564242,12.6091025
Restaurants,Bones Amager,55.6572864,12.6085209
Restaurants,Omar Khayam Den Persiske Restaurant,55.6665494,12.5217669
Restaurants,Wokamok 2000,55.6837134,12.524561
Restaurants,Kon Tiki,55.6827904,12.6034021
Restaurants,Restaurant Menu'en,55.6617289,12.5979076
Restaurants,Islands Brygge Wok,55.6639807,12.580112
Restaurants,Sushi factory amager,55.663809,12.600796
Restaurants,Filini,55.6673341,12.5858715
Restaurants,Xing Sushi,55.6788468,12.5056505
Restaurants,Restaurant Frksbrg,55.6783936,12.5320979
Restaurants,Turesen,55.6813932,12.5639983
Restaurants,Uma,55.6813469,12.5645739
Restaurants,Blue Elephant,55.6671884,12.5858004
Restaurants,Mash Penthouse,55.6662129,12.5653754
Restaurants,Josty,55.6738208,12.5295951
Restaurants,Danafrika,55.69691,12.53588
Restaurants,Dumpo,55.666447,12.5513407
Restaurants,Restaurant Il Grappolo Blu Divina Patria,55.6807476,12.5537813
Restaurants,Restaurant Anarki,55.679345,12.554631
Restaurants,Osteria 16,55.667618,12.545708
Restaurants,Candido,55.6871785,12.5299759
Restaurants,20 a,55.689275,12.5630017
Restaurants,San Marco Junior,55.6792203,12.5337989
Restaurants,Famosi E Golosi,55.6847688,12.5405472
Restaurants,Fabio Vinbar & Restaurant,55.6836466,12.5370129
Restaurants,Lillians Smørrebrød,55.6719238,12.577772
Restaurants,Hidmona Restaurant,55.6888015,12.5551904
Restaurants,Kato Sushi,55.682539,12.550529
Restaurants,Karmaman,55.6734812,12.5428116
Restaurants,Al-Diwan,55.672282,12.5480869
Restaurants,Ammessi,55.6727887,12.551931
Restaurants,Restaurant Krebsegården,55.6787037,12.5699553
Restaurants,Fu Hao,55.6716979,12.5627315
Restaurants,Teaterkælderen,55.6732196,12.5555639
Restaurants,The Grill,55.6750742,12.5595006
Restaurants,Restaurant Amalie,55.682714,12.59194
Restaurants,Fru Nimb,55.6735593,12.5660283
Restaurants,Det Færøske Hus Restaurant,55.672791,12.56013
Restaurants,Diamond Rice,55.6822905,12.588367
Restaurants,L'Appetito,55.6756538,12.5616858
Restaurants,Slotskælderen hos Gitte Kik,55.6780017,12.5808754
Restaurants,Restaurant Sankt Annæ,55.6813617,12.5912272
Restaurants,District Tonkin,55.6850364,12.5881236
Restaurants,Scandic Front,55.6812796,12.5933844
Restaurants,NyhavnC,55.6801972,12.5902748
Restaurants,Restaurant Fyrtøjet,55.6806168,12.5887007
Restaurants,Restaurant Leonore Christine,55.6806516,12.5885522
Restaurants,The Union Kitchen,55.681355,12.589292
Restaurants,Midori,55.6812021,12.5831752
Restaurants,Tight,55.6781301,12.5764893
Restaurants,NÆRT,55.6815961,12.5776173
Restaurants,Brew Pub København Restaurant,55.6770836,12.5694678
Restaurants,Retour Steak,55.6817271,12.5818496
Restaurants,Restaurant og Cafe Nytorv Friluft,55.6771833,12.5736015
Restaurants,Bar' Vin,55.680739,12.576194
Restaurants,Brdr. Price i Tivoli,55.6741644,12.5679346
Restaurants,Izumi,55.7168983,12.5769586
Restaurants,Gosushi,55.707882,12.532365
Restaurants,Sachi Sushi Borgergade,55.6834911,12.5852054
Restaurants,Skagen Fiskerestaurant kbh,55.6792416,12.5806831
Restaurants,Papa Ramen,55.668575,12.5541382
Restaurants,Bollyfood Kødbyen,55.6688397,12.5585741
Restaurants,Restaurant og Cafe Nielsen,55.6658246,12.4376446
Restaurants,Restaurant Hummer,55.679603,12.592546
Restaurants,Hjemme,55.6906367,12.5757099
Restaurants,Yoki restaurant,55.636866,12.480009
Restaurants,Duniya palace,55.678917,12.533698
Restaurants,Restaurant India,55.6817367,12.5350587
Restaurants,Spontan,55.6919041,12.5558833
Restaurants,Pincho Nation A/S,55.6764,12.564357
Restaurants,The Market,55.6802105,12.5815406
Restaurants,Akiba Sushi & Wok,55.6846825,12.5408698
Restaurants,Max,55.6782998,12.5726978
Restaurants,Admiralgade 26,55.6776224,12.5821143
Restaurants,Voraz,55.6772807,12.5755837
Restaurants,Brooklyn Bar,55.6799959,12.5914182
Restaurants,Lundgren V.I.P,55.6729608,12.5547773
Restaurants,Strandlund Vennerslund Restaurant,55.743478,12.586544
Restaurants,Staldcafeen,55.7570798,12.5869458
Restaurants,Bowlernes Hal,55.6998899,12.5154233
Restaurants,Det Islamiske Trossamfund Restaurant,55.708316,12.525445
Restaurants,Kompasset,55.6795496,12.592772
Restaurants,Viften,55.6740013,12.5669807
Restaurants,Chim Chim,55.6756,12.5642035
Restaurants,Palæo City,55.6793593,12.5805701
Restaurants,Lalala,55.676601,12.5951708
Restaurants,Nino e Franco,55.6929993,12.5656456
Restaurants,Otto,55.6979574,12.5936223
Restaurants,Deligreco,55.6781041,12.534778
Restaurants,Sushi2500 Smallegade,55.6789481,12.5299118
Restaurants,YO! Sushi,55.6282918,12.6488906
Restaurants,L'Imperatore,55.7013779,12.5771052
Restaurants,Mæsk,55.6841046,12.5249619
Restaurants,Sankt Annæ 8,55.6738544,12.5913373
Restaurants,Asia House,55.6947686,12.5096072
Restaurants,Mevlana,55.6968977,12.5513956
Restaurants,Gasten,55.6804302,12.589409
Restaurants,Bevi Bevi,55.6680075,12.5501836
Restaurants,Barock,55.6808434,12.5879591
Restaurants,Vietthai,55.708401,12.531823
Restaurants,Nagoya,55.6755107,12.5542313
Restaurants,Väkst,55.6788004,12.5671517
Restaurants,Kødbyens Fiskebar,55.66785,12.55927
Restaurants,Uformel,55.67653,12.56447
Restaurants,Paté Paté,55.66917,12.55864
Restaurants,Restaurant Gorilla,55.6677,12.56114
Restaurants,Restaurant Løjtehus,55.62292,12.62138
Restaurants,Oranje af Svendborg,55.679387,12.5926112
Restaurants,Nyboders Køkken,55.6867773,12.5879811
Restaurants,Go-Kart Banen Restaurant,55.6789236,12.6193481
Restaurants,Jah,55.6707131,12.5574865
Restaurants,Det Simrer,55.7033707,12.5852357
Restaurants,Ramen to Biiru,55.6656945,12.5429694
Restaurants,Mangal,55.6671559,12.5587233
Restaurants,Restaurant Pilen,55.671506,12.5291573
Restaurants,Wok Flame Thai,55.638191,12.63476
Restaurants,"Meyers Køkken, Business Center",55.6458599,12.6420944
Restaurants,Trattoria Nuova Italia,55.69593,12.459064
Restaurants,Tivoli Hotel og Tivoli Congress Center Restaurant Tivoli Vie,55.6658853,12.5660006
Restaurants,NOHO,55.667699,12.557941
Restaurants,Claras,55.6792394,12.4561855
Restaurants,Ambassaden og Konsulatet,55.6937622,12.5833449
Restaurants,Lupa,55.7035065,12.5851589
Restaurants,Mangia,55.673264,12.554397
Restaurants,Vandvid,55.6473438,12.5505625
Restaurants,Jazzhus Montmartre,55.6820021,12.5824601
Restaurants,Café Patina,55.6679591,12.5479378
Restaurants,Spisestuen,55.7272438,12.5559913
Restaurants,Brasserie Barner,55.706107,12.5782619
Restaurants,Christianshavnerfærgen M/F,55.6755943,12.5926933
Restaurants,WokShop Valby,55.6662829,12.5148241
Restaurants,Brace,55.6795823,12.568656
Restaurants,Restaurant Flammen,55.680252,12.561461
Restaurants,DADA,55.6806777,12.5718683
Restaurants,Fleisch,55.6691055,12.5587033
Restaurants,Scandic Sluseholmen,55.6434709,12.5450024
Restaurants,Restaurant Jordnær,55.7481057,12.5412167
Restaurants,Bistro Couloir,55.6586612,12.6309498
Restaurants,Garden,55.6832992,12.5779925
Restaurants,Gro spiseri,55.7112828,12.564172
Restaurants,Oregano Huset,55.6904099,12.5171663
Restaurants,Katsura,55.7115144,12.4744897
Restaurants,Nr.30,55.6818869,12.563396
Restaurants,Nærvær,55.6771212,12.5964137
Restaurants,Mammas,55.6758977,12.5712535
Restaurants,Kasai 2 Nørrebro,55.6966884,12.5373907
Restaurants,Mudan Restaurant,55.684331,12.503692
Restaurants,Restaurant Barr,55.6779025,12.5962675
Restaurants,Corsa Pizza,55.7066274,12.5964343
Restaurants,Aamanns 1921,55.68021,12.57594
Restaurants,Tèrra,55.6946659,12.5706939
Restaurants,The Pescatarian,55.6878773,12.5961728
Restaurants,Restaurant Kultorvet,55.6824392,12.5746307
Restaurants,Trio,55.675829,12.565714
Restaurants,Tavola Calda,55.731353,12.56454
Restaurants,Magi Sushi Restaurant,55.7120086,12.4713071
Restaurants,Restaurant Silo,55.7081532,12.597972
Restaurants,Frank,55.6811035,12.5842178
Restaurants,Sticks 'n' Sushi,55.6742794,12.565311
Restaurants,Chefoncall,55.679931,12.5803277
Restaurants,Noma,55.6825096,12.6107888
Restaurants,The Fat Pike,55.666441,12.580536
Restaurants,Ewalds,55.6776484,12.5334459
Restaurants,Khmer Restaurant,55.685815,12.589232
Restaurants,Bazaar,55.6837592,12.5862493
Restaurants,Urten,55.6786267,12.5693542
Restaurants,Mash Frederiksberg,55.6763213,12.5424716
Restaurants,Trattoria Da Alfredo,55.6868165,12.4827805
Restaurants,Coq en Pâte,55.7136261,12.5770248
Restaurants,Ramen To Biiru,55.7017375,12.5810648
Restaurants,India,55.6939367,12.4934818
Restaurants,Selma,55.6847517,12.5699647
Restaurants,Meille,55.6789881,12.5681243
Restaurants,Blaaregn,55.6877197,12.5470035
Restaurants,Ark,55.6852177,12.5682623
Restaurants,Nebbiolo Antipasti,55.6785116,12.5898703
Restaurants,Frenchy,55.684969,12.588091
Restaurants,Food Club,55.688187,12.562868
Restaurants,Engtoftegård,55.655232,12.440768
Restaurants,Punk Royal,55.6835352,12.5878103
Restaurants,Salon,55.6862387,12.591617
Restaurants,Trattoria SUD,55.6847132,12.5683542
Restaurants,Mahalle,55.6837192,12.5655588
Restaurants,Restaurant Alouette,55.662594,12.575964
Restaurants,Iluka,55.6777522,12.5892445
Restaurants,Mercante,55.6791528,12.5759916
Restaurants,Boathouse,55.6774404,12.5950847
Restaurants,Halifax Burgers Skolegade,55.6654888,12.5135861
Restaurants,Letz Sushi Store Kongensgade,55.682999,12.586841
Restaurants,Undici,55.67513,12.594104
Restaurants,Bistro Central,55.6816643,12.582487
Restaurants,MaMeMi,55.66785,12.547969
Restaurants,Basso KBH,55.6838798,12.5865768
Restaurants,Restaurant 1733,55.6764748,12.5763083
Restaurants,Hanzo,55.7040289,12.5771735
Restaurants,Baka d'Busk,55.6872816,12.547796
Restaurants,Cafe Ravnsborg,55.6879431,12.5610146
Restaurants,Maui,55.6885903,12.5622147
Restaurants,The Taj,55.6671907,12.5980315
Restaurants,Restaurant Lazio,55.691984,12.513976
Restaurants,Sukaiba,55.6395289,12.5783056
Restaurants,MØR Restaurant & Bar,55.6669001,12.5573055
Restaurants,Luca Pizzaria,55.6777061,12.5783464
Restaurants,Tramonto,55.666804,12.5330623
Restaurants,WOK Christianshavn,55.6720329,12.5925263
Restaurants,The harbour,55.6630696,12.5636439
Restaurants,Hey Ida,55.6666851,12.5708356
Restaurants,Great China,55.6721055,12.5628926
Restaurants,Hot Pot Republic,55.6704466,12.5407277
Restaurants,Il Puro,55.72597,12.5802691
Restaurants,John & Woo,55.706779,12.597831
Restaurants,Wokshop,55.7002445,12.5772079
Restaurants,Ristorante Nuova Italia,55.68152,12.452038
Restaurants,Watami,55.6660798,12.5118841
Restaurants,OISHI Sushi,55.6493182,12.5545508
Restaurants,Alchemist,55.693831,12.613906
Restaurants,Falang,55.6702083,12.5563878
Restaurants,The Modern,55.681486,12.5926011
Restaurants,The Shrimp,55.6812303,12.5916864
Restaurants,Pizzeria e Birratheque La Carmela,55.666246,12.517569
Restaurants,Karma Sushi Nyhavn,55.6797919,12.5925569
Restaurants,Nepali Bhancha,55.6823199,12.5501532
Restaurants,Nordea Ørestaden Fine Dining,55.6555232,12.5915818
Restaurants,Hooked,55.6900527,12.5550218
Restaurants,Folk,55.6717984,12.5227138
Restaurants,Restaurant Babylon,55.6818679,12.5592221
Restaurants,Allé Kroen,55.6363595,12.6476265
Restaurants,Restaurant MA,55.681785,12.579791
Restaurants,Maison,55.6844446,12.583696
Restaurants,Wakha Wakha,55.6744794,12.5651668
Restaurants,Restaurant Cyprus,55.6308694,12.5760643
Restaurants,PanPan,55.673644,12.5215133
Restaurants,And Kebab,55.6622827,12.5625553
Restaurants,Angelini,55.6737791,12.5645743
Restaurants,Yaffa,55.6796755,12.575417
Restaurants,À terre,55.678621,12.587411
Restaurants,Wok Shop,55.7345,12.574708
Restaurants,Madklubben Østerbro,55.7039585,12.5771709
Restaurants,Dream Sushi,55.6670753,12.5542541
Restaurants,Granen,55.6769008,12.4945664
Restaurants,Norrlyst,55.6775891,12.5762576
Restaurants,Grosen & Falkenbergs,55.6782978,12.5996303
Restaurants,Spazio 26,55.681775,12.582591
Restaurants,Restaurant Safari,55.6868108,12.5599782
Restaurants,Restaurant Kongen,55.6748471,12.5489198
Restaurants,Restaurant Polly,55.6754224,12.5463859
Restaurants,Frankies Pizza Frederiksberg,55.675014,12.532789
Restaurants,John&Woo,55.6655167,12.5983684
Restaurants,Lola,55.671436,12.596126
Restaurants,Lucifer,55.6842087,12.5874396
Restaurants,Restaurant Capa,55.6762332,12.5702485
Restaurants,Kanagawa,55.6719062,12.5475635
Restaurants,Nozomi,55.6837909,12.5874458
Restaurants,Sult,55.6827638,12.5782361
Restaurants,JabbyS,55.6780113,12.5682789
Restaurants,Lamfuz,55.7056099,12.574435
Restaurants,Carls Øl & Spisehus,55.667326,12.533585
Restaurants,Bulko,55.666567,12.539532
Restaurants,Las americas,55.6789726,12.5806061
Restaurants,Everest Curry,55.6677745,12.5792116
Restaurants,Turan,55.671531,12.439092
Restaurants,Mosob,55.6886848,12.5550878
Restaurants,Garam Masala,55.6923425,12.4855646
Restaurants,Nibon Ya Sushi,55.6730829,12.5601926
Restaurants,Retour Vesterbro,55.6739197,12.5605647
Restaurants,PickEatUp,55.6521569,12.5347796
Restaurants,Konstrast,55.6712185,12.567266
Restaurants,Frankies,55.6781339,12.5728654
Restaurants,Urban Indian,55.6773734,12.5667418
Restaurants,Færgekroen,55.6741317,12.5698159
Restaurants,Hind,55.7129214,12.5686768
Restaurants,Jagger,55.666523,12.517656
Restaurants,Brasserie Murdoch's Books & Ale,55.6829847,12.5888432
Restaurants,Barabba,55.6825697,12.5864106
Restaurants,Rangoli,55.6845705,12.5881385
Restaurants,Frokostrestauranten 1971,55.678948,12.547833
Restaurants,Restaurant Carl Nielsen,55.680072,12.591528
Restaurants,Restaurant Erbil,55.7085828,12.5490665
Restaurants,Ye Sushi,55.6382902,12.6351022
Restaurants,Neighborhood,55.6939222,12.5424684
Restaurants,Eat in Time,55.666532,12.516799
Restaurants,Bjørns,55.672726,12.553059
Restaurants,BBC Restaurant,55.627858,12.604814
Restaurants,Skovshoved Hotel Morgenmadsrestaurant,55.7589522,12.5968879
Restaurants,Le Lac,55.696816,12.581625
Restaurants,Rose Rose,55.7373796,12.5753407
Restaurants,Accanto Copenhagen,55.6828028,12.5742806
Restaurants,Ciao Italian Quality Food,55.6713138,12.5460591
Restaurants,Hija de Sanchez Cantina,55.7078534,12.5970153
Restaurants,Restaurant Palægade,55.6823022,12.5864119
Restaurants,Møntergade Smørrebrød og Brasseri,55.682207,12.579874
Restaurants,Fasangården,55.675047,12.521294
Restaurants,Wallmans,55.6759302,12.5651134
Restaurants,Kōnā,55.6678674,12.5321593
Restaurants,Brasserie Saigon,55.672528,12.554985
Restaurants,Hong Kong,55.6806738,12.5884539
Restaurants,Salon 39 Vinbar,55.678045,12.55441
Restaurants,Makoto,55.6943678,12.509777
Restaurants,Restaurant Fabio,55.683541,12.53687
Restaurants,Vanløse Bistro,55.6895028,12.4893128
Restaurants,Superbello,55.6880045,12.4894106
Restaurants,El Tapeo de Cervantes,55.672795,12.555682
Restaurants,Captain H,55.697319,12.573688
Restaurants,Comwell Copenhagen Portside,55.7126955,12.5937576
Restaurants,Silberbauers Bistro,55.6932511,12.5434247
Restaurants,Nan Yuan,55.6848825,12.5400231
Restaurants,The Fat Greek,55.692139,12.5672721
Restaurants,Darling,55.677693,12.58104
Restaurants,Kampot,55.7074985,12.5943989
Restaurants,Øens Have,55.6910561,12.6121234
Restaurants,Spisestedet Jagten,55.6255862,12.4958722
Restaurants,Fish Sushi,55.6036614,12.5863914
Restaurants,Komplet,55.6809565,12.5740229
Restaurants,Seating,55.6353354,12.6548788
Restaurants,Seaside Toldboden,55.6898946,12.5998371
Restaurants,Charm,55.6801626,12.5915873
Restaurants,Chawala,55.660039,12.61419
Restaurants,Pomodoro D'oro,55.6590358,12.6337695
Restaurants,Sushi Joint,55.6585259,12.6346796
Restaurants,Restaurant Sundby Sejl,55.6644204,12.6318053
Restaurants,Camino,55.6682173,12.5575678
Restaurants,Thai Corner,55.6706023,12.5576196
Restaurants,Projekt Raw,55.6900841,12.5998339
Restaurants,Spisehuset,55.6764251,12.5751538
Restaurants,Figaro,55.6734393,12.5672476
Restaurants,Mæxico Vesterbrogade,55.6726717,12.5534758
Restaurants,Sol & Luna,55.681062,12.531532
Restaurants,NH Collection Copenhagen,55.6735885,12.5887099
Restaurants,Shirzad Persisk Restaurant,55.6814834,12.5186154
Restaurants,Osteria Nana,55.68444,12.5879994
Restaurants,Restaurant Replik,55.6799349,12.5950934
Restaurants,Le Jardin,55.6813494,12.5827732
Restaurants,Skagen Fiskerestaurant Esplanaden,55.6874375,12.5931364
Restaurants,Ristorante IL Rosmarino,55.679347,12.5935523
Restaurants,Lille Norrlyst,55.678328,12.574838
Restaurants,JED,55.690785,12.5647665
Restaurants,Bloom Vesterbro,55.672457,12.5569539
Restaurants,Bobo Food Studio,55.6789239,12.582729
Restaurants,Espehus Kro,55.6797644,12.4371373
Restaurants,Bocado,55.680047,12.582004
Restaurants,Puls Kitchen & Bar,55.6316349,12.5749114
Restaurants,Vinello,55.6920914,12.5671944
Restaurants,Plin,55.6813134,12.591502
Restaurants,Det Glade Vanvid,55.678327,12.578874
Restaurants,Topical,55.6930162,12.5433073
Restaurants,Delphine,55.672505,12.5557822
Restaurants,Görkem Efendi NV,55.703294,12.5327525
Restaurants,Restaurant The Samuel,55.7324423,12.5683736
Restaurants,Koreansk B.B.Q.,55.6845961,12.5022718
Restaurants,Almanak i Operaen,55.6819231,12.601622
Restaurants,TAVA,55.6802107,12.4578708
Restaurants,Glød,55.6832134,12.5833377
Restaurants,Skjoldgaarden,55.7555485,12.5856828
Restaurants,Damindra,55.6762609,12.57426
Restaurants,Proud sushi,55.6840705,12.4859569
Restaurants,Feed Bistro,55.6749946,12.5664369
Restaurants,Bjørnekælderen,55.674033,12.5374112
Restaurants,Buakow a thai take away,55.6970299,12.5259342
Restaurants,Panza,55.6950428,12.5693931
Restaurants,Spiseriet Teglholmen,55.6512651,12.5460454
Restaurants,The Flames,55.6555229,12.6165856
Restaurants,Thai Gourmet,55.6910915,12.576091
Restaurants,Circolo,55.6742463,12.5517912
Restaurants,A Dresscode,55.7000499,12.5940935
Restaurants,La Tre to Go,55.7457106,12.540778
Restaurants,New Mahalle CPH,55.680686,12.573099
Restaurants,Little House Restaurant,55.6671897,12.6204284
Restaurants,UMI Vanløse,55.6879656,12.4899268
Restaurants,Hooked Christianshavn,55.6732604,12.5893843
Restaurants,Jesper Gøtz,55.6830362,12.5765392
Restaurants,Kasai Sushi,55.6526953,12.6118561
Restaurants,Lago,55.684486,12.559484
Restaurants,Pulpo,55.6646497,12.6292426
Restaurants,PHO HA NOI,55.67513,12.562252
Restaurants,Maekhong,55.6958568,12.5728961
Restaurants,Restaurant Muma,55.7057775,12.5110096
Restaurants,Golden Palace Cph,55.6277996,12.6048373
Restaurants,Jatak,55.6870442,12.5478519
Restaurants,Mr Ramen,55.6766105,12.5647215
Restaurants,Mæxico City,55.6788415,12.5732073
Restaurants,Hotel Skt Petri Restaurant,55.6806951,12.5717288
Restaurants,Casamadre,55.7012459,12.5510939
Restaurants,Bar Pasta,55.6881393,12.5546282
Restaurants,The Market Italian,55.68032,12.581599
Restaurants,Takuya restaurant,55.6722146,12.5635698
Restaurants,Thaipan,55.6909676,12.5593416
Restaurants,P & P Restaurant,55.7130804,12.5731104
Restaurants,Dehra Restaurant,55.6616634,12.483398
Restaurants,Madklubben frederiksberg,55.6810539,12.531986
Restaurants,Dorado,55.6901358,12.5997619
Restaurants,Danhostel Copenhagen City Morgenmadsbuffet,55.6710017,12.5765664
Restaurants,Madklubben Vesterbro,55.6727157,12.5529918
Restaurants,Patagonia Grill,55.6900476,12.5998689
Restaurants,Dang Dang Asian Flavours,55.6900822,12.5998659
Restaurants,Solveig,55.6901128,12.5997773
Restaurants,Levi,55.6818155,12.5822735
Restaurants,Co-Ma Madsalen,55.676019,12.57309
Restaurants,Theo,55.6793247,12.5743883
Restaurants,Lees Kitchen,55.6831555,12.555704
Restaurants,Kristinedal Burgers,55.6780951,12.5683259
Restaurants,Brasserie Prins,55.6736242,12.5533321
Restaurants,Kanagawa Sushi,55.7036591,12.5874645
Restaurants,Restaurant Mark,55.6754714,12.56437
Restaurants,Alexanders bistro,55.6672661,12.5315743
Restaurants,Svovl,55.7059768,12.579502
Restaurants,hubb kitchens,55.6841983,12.572532
Restaurants,Aroii,55.6919155,12.5571412
Restaurants,The MidWestern Diner,55.6826026,12.5735729
Restaurants,Bistro RK,55.6957396,12.5469588
Restaurants,Villanelle,55.6897719,12.573896
Restaurants,Koreansk BBQ,55.7075182,12.5968605
Restaurants,Injera,55.7022283,12.5337581
Restaurants,Ramen 88,55.6643083,12.6226718
Restaurants,Next EATERY,55.6695864,12.5709855
Restaurants,Pilekælderen,55.6811859,12.5795107
Restaurants,Bistro Verde,55.6811201,12.5921761
Restaurants,Studio,55.6668506,12.5310338
Restaurants,Souls Eatery,55.6672429,12.5359743
Restaurants,Sholay Indian Cuisine,55.6522197,12.5495151
Restaurants,ISSEI Copenhagen,55.6747583,12.5638287
Restaurants,Slurp Ramen Residency at Kona,55.6678464,12.532237
Restaurants,Franks Kro,55.6927267,12.5675736
Restaurants,Vital Foods,55.6805311,12.5789259
Restaurants,Saigon 45,55.6792858,12.4590299
Restaurants,WaSai Asian Restaurant,55.7191077,12.5571894
Restaurants,Pauli,55.6517111,12.537905
Restaurants,Hanzo Frederiksberg,55.683271,12.527689
Restaurants,Mamak,55.6841075,12.5243186
Restaurants,Kolumbia,55.6716883,12.5924185
Restaurants,Katsura Herlev,55.725215,12.438572
Restaurants,Kaburgaci Tahsin Usta,55.7115709,12.4742426
Restaurants,Kappo Andō,55.6953569,12.5793606
Restaurants,Aroiidee,55.6918749,12.5572129
Restaurants,Kiyosaki Frederiksberg,55.6845305,12.5374583
Restaurants,Zen Dimsum & Sushi,55.6787464,12.5317898
Restaurants,Taigoo,55.6815545,12.5345698
Restaurants,Restaurant Ansvar,55.6695244,12.5737212
Restaurants,Restaurant Nordbo,55.6695724,12.5737856
Restaurants,Bombay bistro,55.6812988,12.5724902
Restaurants,Beaucoup Fish,55.6675856,12.5469695
Restaurants,Kokkefars Køkken,55.7329812,12.517116
Restaurants,Maupa,55.6831423,12.5868902
Restaurants,Restaurant Le Gourmand,55.6791811,12.5693851
Restaurants,Saji,55.678808,12.5698571
Restaurants,Level six Restaurant,55.683798,12.5717122
Restaurants,Lundgren VIP 2 Vin & Tapas,55.6833541,12.5777549
Restaurants,Dhaba,55.676076,12.5663591
Restaurants,Lun,55.6728689,12.560654
Restaurants,Goldie,55.688369,12.5544934
Restaurants,Zio & Nonna,55.696118,12.5910248
Restaurants,Ripotot,55.6834822,12.587209
Restaurants,JuJu,55.6898535,12.5750047
Restaurants,Mela,55.6558432,12.5045003
Restaurants,Restaurant Chili,55.676098,12.5746729
Restaurants,La Place,55.6727327,12.5650607
Restaurants,Sensu Sushi,55.6178115,12.5689088
Restaurants,Nachos,55.6304622,12.5778403
Restaurants,Hummerkompagniet,55.6616483,12.6302676
Restaurants,No. 27,55.6618512,12.6302462
Restaurants,Mahalle Amager,55.6617772,12.629453
Restaurants,Grand Joanne,55.673592,12.5624527
Restaurants,Resto Bar,55.6718061,12.5550178
Restaurants,Lamar,55.6735056,12.5554531
Restaurants,La Bodega,55.6721603,12.554686
Restaurants,Sazio Restaurant & Vin Bar,55.669436,12.5580744
Restaurants,Gemini,55.6745307,12.558388
Restaurants,Al Dente,55.6901841,12.5997633
Restaurants,Gorms Nyhavn 14,55.6796707,12.5899481
Restaurants,Janice,55.6712092,12.543458
Restaurants,Midori sushi,55.6714019,12.5444509
Restaurants,Haidan,55.7074316,12.5943637
Restaurants,Piola Pastificio,55.6804002,12.548289
Restaurants,UMI Valby,55.6612346,12.5126588
Restaurants,Chimi,55.658836,12.6097258
Restaurants,Olea Kitchen & Bar,55.6761862,12.4351509
Restaurants,Morgenmads Restaurant,55.6305734,12.652613
Restaurants,Restaurant China,55.6818552,12.574564
Restaurants,Restaurant Odette,55.6772045,12.5754492
Restaurants,Bistro Gustav,55.6793479,12.5683641
Restaurants,Magstræde 16 og 18,55.6763328,12.5751126
Restaurants,Cleo,55.6877976,12.5464592
Restaurants,KOBA Koreansk Barbeque,55.6464895,12.6145028
Restaurants,Indian Swaad,55.6823913,12.572354
Restaurants,Lunden,55.6936897,12.5368145
Restaurants,Restaurant Kastrup Strandpark,55.64064980555556,12.652292672222222
Restaurants,Orangeriet,55.68460415555556,12.582119355555555
Restaurants,Mazzolis,55.67448495652174,12.568205604347826
Restaurants,Mash Skovriderkroen,55.74935301923077,12.586804619230769
Restaurants,Restaurant 56 grader,55.68425728,12.6103327
Restaurants,Restaurant Kanalen,55.67557524,12.5931137
Restaurants,Restaurant Kastrupfortet,55.6486416,12.64021228
Restaurants,Charlottenlund Fort,55.745454742857135,12.587776371428571
Restaurants,Sticks n Sushi,55.66061888,12.63265106
Restaurants,Restaurant Krudtuglen,55.7136816,12.46676528
Restaurants,Grøften,55.67433089166666,12.566845691666666
Restaurants,DSR Kantine,55.714767,12.58610855
Restaurants,Carl's Old Inn,55.6914642,12.46286328
Restaurants,Olivers Garage,55.763246471428566,12.5994511
Bus Stations,Friheden St.,55.6287324,12.4826907
Bus Stations,,55.7453596,12.5429007
Bus Stations,Flintholm St.,55.6859951,12.4986859
Bus Stations,Buddinge St.,55.7467772,12.4943113
Bus Stations,Port Copenhague,55.7014409,12.595828
Bus Stations,Flixbus,55.6700329,12.5654374
Bus Stations,Nøragersmindevej,55.5914446,12.58163447
Hospitals,,55.6561274,12.621527
Hospitals,Børneneurologisk Behandlingsklinik,55.7156153,12.565832
Hospitals,Privathospitalet Danmark,55.7536114,12.571778
Hospitals,Psykiatrisk akutmodtagelse,55.6858367,12.5217996
Hospitals,Psykiatrisk Center Frederiksberg,55.6861512,12.520995
Hospitals,Akutklinik,55.6872847,12.5257885
Hospitals,Blod Bank,55.7383383,12.5460507
Hospitals,Børne- og Ungdomspsykiatrisk Center,55.7158717,12.5434342
Hospitals,Amager Hospital - Italiensvej,55.65509039,12.62034851
Hospitals,Diakonisse-stiftelsen,55.67842625,12.518087392857142
Hospitals,Gentofte Hospital,55.7384367,12.546805052173912
Hospitals,Bispebjerg Hospital,55.714623285,12.54081872
Hospitals,Hvidovre Hospital,55.64899323333333,12.466025022222222
Hospitals,Steno Diabetes Center Copenhagen,55.75577249285713,12.526413214285714
Hospitals,Rigshospitalet,55.697525171428566,12.564847042857142
Hospitals,Psykiatrisk Center Glostrup (afdeling Hvidovre),55.64918801,12.44133486
Hospitals,Psykiatrisk Center Amager,55.6433262225256,12.585983789078497
Hospitals,Amager Hospital - Hans Bogbinders Allé,55.65450875555556,12.608335144444444
Hospitals,Herlev Hospital,55.73196666304348,12.442069641304348
Hospitals,Frederiksberg Hospital,55.686727276470585,12.522921476470588
